BillingCountry,BillingPostalCode,BillingStreet,BillingCity,BillingState,Country,lon,lat,latlong,Address
Japan,336-0021,沼影一丁目１−９,さいたま市南区,埼玉県,JP,139.64430793,35.84212649,"35.84212649,139.64430793",埼玉県さいたま市南区沼影一丁目１−９
Japan,343-0021,大沢四丁目３−３,越谷市,埼玉県,JP,139.78764894,35.90106651,"35.90106651,139.78764894",埼玉県越谷市大沢四丁目３−３
Japan,110-0016,池之端一丁目２−６,台東区,東京都,JP,139.76807,35.70886542,"35.70886542,139.76807",東京都台東区池之端一丁目２−６
Japan,277-0931,東中新宿一丁目２−９,柏市,千葉県,JP,139.96142698,35.8330283,"35.8330283,139.96142698",千葉県柏市東中新宿一丁目２−９
Japan,444-0932,夏山町一丁目１−６,岡崎市,愛知県,JP,137.32003743,34.94825951,"34.94825951,137.32003743",愛知県岡崎市夏山町一丁目１−６
Japan,445-0014,白浜新田二丁目３−３,西尾市,愛知県,JP,137.08145332,34.78585593,"34.78585593,137.08145332",愛知県西尾市白浜新田二丁目３−３
Japan,144-0041,大森西二丁目３−７,大田区,東京都,JP,139.7303022,35.57641804,"35.57641804,139.7303022",東京都大田区大森西二丁目３−７
Japan,815-0072,清水三丁目１−７,福岡市南区,福岡県,JP,130.42120919,33.56968395,"33.56968395,130.42120919",福岡県福岡市南区清水三丁目１−７
Japan,136-0076,毛利一丁目２−２,江東区,東京都,JP,139.81349968,35.69242659,"35.69242659,139.81349968",東京都江東区毛利一丁目２−２
Japan,703-8254,藤原光町二丁目３−７,岡山市中区,岡山県,JP,133.95390606,34.67903095,"34.67903095,133.95390606",岡山県岡山市中区藤原光町二丁目３−７
Japan,602-0807,東石屋町二丁目３−４,京都市上京区,京都府,JP,135.75001533,35.03215919,"35.03215919,135.75001533",京都府京都市上京区東石屋町二丁目３−４
Japan,813-0015,大字名子二丁目３−５,福岡市東区,福岡県,JP,130.47885239,33.6431812,"33.6431812,130.47885239",福岡県福岡市東区大字名子二丁目３−５
Japan,064-0920,南三十条西十丁目１−８,札幌市中央区,北海道,JP,141.34811731,43.01817422,"43.01817422,141.34811731",北海道札幌市中央区南三十条西十丁目１−８
Japan,210-0003,鈴木町二丁目２−３,川崎市川崎区,神奈川県,JP,139.72184204,35.53842715,"35.53842715,139.72184204",神奈川県川崎市川崎区鈴木町二丁目２−３
Japan,221-0062,六角橋四丁目２−９,横浜市神奈川区,神奈川県,JP,139.61762458,35.4836189,"35.4836189,139.61762458",神奈川県横浜市神奈川区六角橋四丁目２−９
Japan,320-0011,富士見が丘四丁目２−３,宇都宮市,栃木県,JP,139.88858868,36.58919834,"36.58919834,139.88858868",栃木県宇都宮市富士見が丘四丁目２−３
Japan,466-0815,大和町一丁目２−７,名古屋市昭和区,愛知県,JP,136.9343111,35.14467815,"35.14467815,136.9343111",愛知県名古屋市昭和区大和町一丁目２−７
Japan,277-0008,手賀の杜一丁目１−８,柏市,千葉県,JP,140.0279279,35.84929322,"35.84929322,140.0279279",千葉県柏市手賀の杜一丁目１−８
Japan,475-0926,宮本町六丁目２−８,半田市,愛知県,JP,136.90945807,34.88388945,"34.88388945,136.90945807",愛知県半田市宮本町六丁目２−８
Japan,533-0021,瑞光一丁目２−５,大阪市東淀川区,大阪府,JP,135.53475248,34.74943454,"34.74943454,135.53475248",大阪府大阪市東淀川区瑞光一丁目２−５
Japan,700-0067,西長瀬一丁目１−７,岡山市北区,岡山県,JP,133.87831029,34.64794124,"34.64794124,133.87831029",岡山県岡山市北区西長瀬一丁目１−７
Japan,321-3234,清原台一丁目１−５,宇都宮市,栃木県,JP,139.98616067,36.56463983,"36.56463983,139.98616067",栃木県宇都宮市清原台一丁目１−５
Japan,595-0046,助松町一丁目２−４,泉大津市,大阪府,JP,135.42201271,34.5166202,"34.5166202,135.42201271",大阪府泉大津市助松町一丁目２−４
Japan,475-0922,新池町二丁目２−９,半田市,愛知県,JP,136.93884574,34.92062884,"34.92062884,136.93884574",愛知県半田市新池町二丁目２−９
Japan,442-0012,新青馬町七丁目３−１,豊川市,愛知県,JP,137.32380569,34.83354321,"34.83354321,137.32380569",愛知県豊川市新青馬町七丁目３−１
Japan,524-0041,勝部六丁目２−３,守山市,滋賀県,JP,135.99462512,35.04813999,"35.04813999,135.99462512",滋賀県守山市勝部六丁目２−３
Japan,111-0056,元浅草二丁目１−７,台東区,東京都,JP,139.78372636,35.70951592,"35.70951592,139.78372636",東京都台東区元浅草二丁目１−７
Japan,208-0035,三ツ木二丁目２−２,武蔵村山市,東京都,JP,139.37112542,35.75852539,"35.75852539,139.37112542",東京都武蔵村山市三ツ木二丁目２−２
Japan,480-0123,中小口二丁目２−１,丹羽郡大口町,愛知県,JP,136.92094815,35.34249487,"35.34249487,136.92094815",愛知県丹羽郡大口町中小口二丁目２−１
Japan,524-0042,焔魔堂町二丁目１−５,守山市,滋賀県,JP,135.9835263,35.04979376,"35.04979376,135.9835263",滋賀県守山市焔魔堂町二丁目１−５
Japan,604-0085,西ノ京西月光町一丁目２−１,京都市中京区,京都府,JP,135.73617624,35.00901955,"35.00901955,135.73617624",京都府京都市中京区西ノ京西月光町一丁目２−１
Japan,320-0833,不動前五丁目３−３,宇都宮市,栃木県,JP,139.87884618,36.54271651,"36.54271651,139.87884618",栃木県宇都宮市不動前五丁目３−３
Japan,214-0012,生田八丁目１−５,川崎市多摩区,神奈川県,JP,139.54814093,35.61665524,"35.61665524,139.54814093",神奈川県川崎市多摩区生田八丁目１−５
Japan,130-0015,東向島六丁目１−６,墨田区,東京都,JP,139.8212857,35.72484946,"35.72484946,139.8212857",東京都墨田区東向島六丁目１−６
Japan,221-0042,泉町一丁目３−１,横浜市神奈川区,神奈川県,JP,139.62162181,35.4738183,"35.4738183,139.62162181",神奈川県横浜市神奈川区泉町一丁目３−１
Japan,372-0822,長沼町二丁目１−３,伊勢崎市,群馬県,JP,139.20823422,36.26573573,"36.26573573,139.20823422",群馬県伊勢崎市長沼町二丁目１−３
Japan,141-0031,戸越二丁目２−８,品川区,東京都,JP,139.72051043,35.61298904,"35.61298904,139.72051043",東京都品川区戸越二丁目２−８
Japan,639-0241,関屋北一丁目３−５,香芝市,奈良県,JP,135.67586532,34.56113655,"34.56113655,135.67586532",奈良県香芝市関屋北一丁目３−５
Japan,731-3165,八木三丁目３−８,広島市安佐南区,広島県,JP,132.4932365,34.4830736,"34.4830736,132.4932365",広島県広島市安佐南区八木三丁目３−８
Japan,812-0065,箱崎三丁目３−９,福岡市東区,福岡県,JP,130.42352065,33.6207328,"33.6207328,130.42352065",福岡県福岡市東区箱崎三丁目３−９
Japan,356-0024,川崎二丁目１−２,ふじみ野市,埼玉県,JP,139.52122341,35.88860084,"35.88860084,139.52122341",埼玉県ふじみ野市川崎二丁目１−２
Japan,276-0023,勝田台二丁目１−５,八千代市,千葉県,JP,140.12590082,35.7098795,"35.7098795,140.12590082",千葉県八千代市勝田台二丁目１−５
Japan,187-0031,回田町二丁目３−５,小平市,東京都,JP,139.49630784,35.71708812,"35.71708812,139.49630784",東京都小平市回田町二丁目３−５
Japan,594-0065,寺門町一丁目１−７,和泉市,大阪府,JP,135.43268362,34.47396218,"34.47396218,135.43268362",大阪府和泉市寺門町一丁目１−７
Japan,862-0941,出水四丁目３−３,熊本市中央区,熊本県,JP,130.7323312,32.78172123,"32.78172123,130.7323312",熊本県熊本市中央区出水四丁目３−３
Japan,174-0042,若木一丁目３−５,板橋区,東京都,JP,139.67306533,35.76863308,"35.76863308,139.67306533",東京都板橋区若木一丁目３−５
Japan,981-1227,愛の杜二丁目２−５,名取市,宮城県,JP,140.86215354,38.156495,"38.156495,140.86215354",宮城県名取市愛の杜二丁目２−５
Japan,300-4217,田倉一丁目３−７,つくば市,茨城県,JP,140.01546878,36.12130105,"36.12130105,140.01546878",茨城県つくば市田倉一丁目３−７
Japan,568-0092,新和町二丁目２−９,茨木市,大阪府,JP,135.57616591,34.79484771,"34.79484771,135.57616591",大阪府茨木市新和町二丁目２−９
Japan,176-0011,桜台二丁目１−１,練馬区,東京都,JP,139.66565136,35.74368891,"35.74368891,139.66565136",東京都練馬区桜台二丁目１−１
Japan,153-0051,原町二丁目３−６,目黒区,東京都,JP,139.69118885,35.61528508,"35.61528508,139.69118885",東京都目黒区原町二丁目３−６
Japan,606-0044,岡崎天王町二丁目３−３,京都市左京区,京都府,JP,135.78737727,35.01680151,"35.01680151,135.78737727",京都府京都市左京区岡崎天王町二丁目３−３
Japan,921-8124,北安江一丁目３−８,金沢市,石川県,JP,136.64913282,36.5821079,"36.5821079,136.64913282",石川県金沢市北安江一丁目３−８
Japan,178-0061,南田中二丁目１−３,練馬区,東京都,JP,139.61807494,35.73405226,"35.73405226,139.61807494",東京都練馬区南田中二丁目１−３
Japan,334-0014,大字石神二丁目１−５,川口市,埼玉県,JP,139.73677973,35.85755769,"35.85755769,139.73677973",埼玉県川口市大字石神二丁目１−５
Japan,920-0227,有松四丁目２−５,金沢市,石川県,JP,136.63627304,36.53923142,"36.53923142,136.63627304",石川県金沢市有松四丁目２−５
Japan,064-0924,南四条東四丁目１−６,札幌市中央区,北海道,JP,141.36355934,43.05726765,"43.05726765,141.36355934",北海道札幌市中央区南四条東四丁目１−６
Japan,444-0502,矢場町二丁目１−２,西尾市,愛知県,JP,137.056833,34.87144045,"34.87144045,137.056833",愛知県西尾市矢場町二丁目１−２
Japan,202-0002,北原町二丁目３−３,西東京市,東京都,JP,139.54469173,35.73644812,"35.73644812,139.54469173",東京都西東京市北原町二丁目３−３
Japan,191-0031,多摩平五丁目２−８,日野市,東京都,JP,139.37712414,35.66913523,"35.66913523,139.37712414",東京都日野市多摩平五丁目２−８
Japan,602-8252,勘兵衛町一丁目１−４,京都市上京区,京都府,JP,135.75347302,35.02044907,"35.02044907,135.75347302",京都府京都市上京区勘兵衛町一丁目１−４
Japan,437-0002,上山梨四丁目１−１,袋井市,静岡県,JP,137.90268572,34.7861201,"34.7861201,137.90268572",静岡県袋井市上山梨四丁目１−１
Japan,177-0034,錦一丁目３−５,練馬区,東京都,JP,139.66983586,35.75952016,"35.75952016,139.66983586",東京都練馬区錦一丁目３−５
Japan,920-0209,西堀川町一丁目１−５,金沢市,石川県,JP,136.65308822,36.5823318,"36.5823318,136.65308822",石川県金沢市西堀川町一丁目１−５
Japan,227-0031,たちばな台二丁目３−７,横浜市青葉区,神奈川県,JP,139.51195892,35.55601601,"35.55601601,139.51195892",神奈川県横浜市青葉区たちばな台二丁目３−７
Japan,920-0227,有松四丁目１−４,金沢市,石川県,JP,136.6357672,36.54054102,"36.54054102,136.6357672",石川県金沢市有松四丁目１−４
Japan,440-0806,八町通三丁目１−４,豊橋市,愛知県,JP,137.39362896,34.766713,"34.766713,137.39362896",愛知県豊橋市八町通三丁目１−４
Japan,982-0031,茂ケ崎三丁目２−８,仙台市太白区,宮城県,JP,140.87594065,38.23631745,"38.23631745,140.87594065",宮城県仙台市太白区茂ケ崎三丁目２−８
Japan,982-0014,上野山三丁目２−８,仙台市太白区,宮城県,JP,140.82686318,38.23109018,"38.23109018,140.82686318",宮城県仙台市太白区上野山三丁目２−８
Japan,334-0072,栄町三丁目３−８,川口市,埼玉県,JP,139.71946479,35.8039859,"35.8039859,139.71946479",埼玉県川口市栄町三丁目３−８
Japan,343-0821,蒲生西町一丁目１−３,越谷市,埼玉県,JP,139.79368696,35.86183493,"35.86183493,139.79368696",埼玉県越谷市蒲生西町一丁目１−３
Japan,481-0043,沖村二丁目２−７,北名古屋市,愛知県,JP,136.85618889,35.2360535,"35.2360535,136.85618889",愛知県北名古屋市沖村二丁目２−７
Japan,329-0227,大字延島新田一丁目１−１,小山市,栃木県,JP,139.90727665,36.34989174,"36.34989174,139.90727665",栃木県小山市大字延島新田一丁目１−１
Japan,157-0071,宮坂三丁目２−２,世田谷区,東京都,JP,139.63529338,35.65440668,"35.65440668,139.63529338",東京都世田谷区宮坂三丁目２−２
Japan,819-0378,福重一丁目３−３,福岡市西区,福岡県,JP,130.32546264,33.56598598,"33.56598598,130.32546264",福岡県福岡市西区福重一丁目３−３
Japan,060-0014,北四条西十一丁目１−６,札幌市中央区,北海道,JP,141.33826054,43.06481706,"43.06481706,141.33826054",北海道札幌市中央区北四条西十一丁目１−６
Japan,444-0841,羽栗町二丁目３−５,岡崎市,愛知県,JP,137.23053885,34.88655777,"34.88655777,137.23053885",愛知県岡崎市羽栗町二丁目３−５
Japan,862-0924,帯山七丁目２−８,熊本市中央区,熊本県,JP,130.75507199,32.80642142,"32.80642142,130.75507199",熊本県熊本市中央区帯山七丁目２−８
Japan,465-0009,つつじが丘二丁目１−３,名古屋市名東区,愛知県,JP,136.99101894,35.18091817,"35.18091817,136.99101894",愛知県名古屋市名東区つつじが丘二丁目１−３
Japan,566-0013,別府一丁目３−９,摂津市,大阪府,JP,135.55605591,34.76586224,"34.76586224,135.55605591",大阪府摂津市別府一丁目３−９
Japan,274-0814,芝山七丁目３−１,船橋市,千葉県,JP,140.02957778,35.71766828,"35.71766828,140.02957778",千葉県船橋市芝山七丁目３−１
Japan,062-0009,美園五条三丁目１−４,札幌市豊平区,北海道,JP,141.38410189,43.04156787,"43.04156787,141.38410189",北海道札幌市豊平区美園五条三丁目１−４
Japan,901-2134,宮城五丁目２−９,浦添市,沖縄県,JP,127.70252202,26.24224108,"26.24224108,127.70252202",沖縄県浦添市宮城五丁目２−９
Japan,594-1113,小田町三丁目３−１,和泉市,大阪府,JP,135.42167833,34.47139947,"34.47139947,135.42167833",大阪府和泉市小田町三丁目３−１
Japan,140-0004,荏原二丁目２−２,品川区,東京都,JP,139.71037504,35.61797235,"35.61797235,139.71037504",東京都品川区荏原二丁目２−２
Japan,320-0064,西の宮一丁目１−５,宇都宮市,栃木県,JP,139.83643005,36.57297054,"36.57297054,139.83643005",栃木県宇都宮市西の宮一丁目１−５
Japan,064-0930,南七条東二丁目１−２,札幌市中央区,北海道,JP,141.36127314,43.05321027,"43.05321027,141.36127314",北海道札幌市中央区南七条東二丁目１−２
Japan,179-0083,北町二丁目１−８,練馬区,東京都,JP,139.66047309,35.76686522,"35.76686522,139.66047309",東京都練馬区北町二丁目１−８
Japan,158-0085,桜新町二丁目３−７,世田谷区,東京都,JP,139.64314168,35.63222536,"35.63222536,139.64314168",東京都世田谷区桜新町二丁目３−７
Japan,179-0075,豊玉中四丁目１−８,練馬区,東京都,JP,139.65116607,35.73115421,"35.73115421,139.65116607",東京都練馬区豊玉中四丁目１−８
Japan,567-0006,宮島一丁目１−４,茨木市,大阪府,JP,135.58264303,34.79079057,"34.79079057,135.58264303",大阪府茨木市宮島一丁目１−４
Japan,565-0803,南吹田五丁目３−８,吹田市,大阪府,JP,135.50100172,34.75146798,"34.75146798,135.50100172",大阪府吹田市南吹田五丁目３−８
Japan,064-0807,南一条西二十四丁目１−６,札幌市中央区,北海道,JP,141.32142285,43.05487934,"43.05487934,141.32142285",北海道札幌市中央区南一条西二十四丁目１−６
Japan,158-0097,粕谷二丁目２−９,世田谷区,東京都,JP,139.60990098,35.66450204,"35.66450204,139.60990098",東京都世田谷区粕谷二丁目２−９
Japan,565-0801,南正雀一丁目１−９,吹田市,大阪府,JP,135.54481059,34.77254745,"34.77254745,135.54481059",大阪府吹田市南正雀一丁目１−９
Japan,230-0002,鶴見二丁目２−９,横浜市鶴見区,神奈川県,JP,139.67053244,35.50598586,"35.50598586,139.67053244",神奈川県横浜市鶴見区鶴見二丁目２−９
Japan,113-0021,関口一丁目１−４,文京区,東京都,JP,139.72929039,35.70954738,"35.70954738,139.72929039",東京都文京区関口一丁目１−４
Japan,273-0031,習志野台六丁目１−６,船橋市,千葉県,JP,140.05223497,35.72478793,"35.72478793,140.05223497",千葉県船橋市習志野台六丁目１−６
Japan,442-0012,新青馬町一丁目１−１,豊川市,愛知県,JP,137.32182919,34.83536488,"34.83536488,137.32182919",愛知県豊川市新青馬町一丁目１−１
Japan,442-0032,東新町二丁目２−１,豊川市,愛知県,JP,137.39606413,34.82837458,"34.82837458,137.39606413",愛知県豊川市東新町二丁目２−１
Japan,700-0981,西崎一丁目１−４,岡山市北区,岡山県,JP,133.89855009,34.66521248,"34.66521248,133.89855009",岡山県岡山市北区西崎一丁目１−４
Japan,321-0944,東峰町二丁目２−５,宇都宮市,栃木県,JP,139.92183516,36.54400405,"36.54400405,139.92183516",栃木県宇都宮市東峰町二丁目２−５
Japan,230-0027,栄町通一丁目１−９,横浜市鶴見区,神奈川県,JP,139.69115634,35.50675426,"35.50675426,139.69115634",神奈川県横浜市鶴見区栄町通一丁目１−９
Japan,154-0016,桜二丁目１−１,世田谷区,東京都,JP,139.63849282,35.64376842,"35.64376842,139.63849282",東京都世田谷区桜二丁目１−１
Japan,989-3433,旭ケ丘二丁目２−７,仙台市青葉区,宮城県,JP,140.88696733,38.2915369,"38.2915369,140.88696733",宮城県仙台市青葉区旭ケ丘二丁目２−７
Japan,343-0834,大字蒲生二丁目１−５,越谷市,埼玉県,JP,139.79114972,35.86058878,"35.86058878,139.79114972",埼玉県越谷市大字蒲生二丁目１−５
Japan,475-0966,横川町一丁目２−７,半田市,愛知県,JP,136.94255272,34.92808071,"34.92808071,136.94255272",愛知県半田市横川町一丁目２−７
Japan,982-0027,西中田四丁目２−２,仙台市太白区,宮城県,JP,140.88068806,38.19666532,"38.19666532,140.88068806",宮城県仙台市太白区西中田四丁目２−２
Japan,904-2162,宮里三丁目１−５,沖縄市,沖縄県,JP,127.82299327,26.33658412,"26.33658412,127.82299327",沖縄県沖縄市宮里三丁目１−５
Japan,260-0853,葛城二丁目２−４,千葉市中央区,千葉県,JP,140.13177748,35.60026677,"35.60026677,140.13177748",千葉県千葉市中央区葛城二丁目２−４
Japan,700-0954,宮浦二丁目１−７,岡山市南区,岡山県,JP,133.9926058,34.58648405,"34.58648405,133.9926058",岡山県岡山市南区宮浦二丁目１−７
Japan,154-0017,池尻一丁目２−５,世田谷区,東京都,JP,139.68295125,35.64305585,"35.64305585,139.68295125",東京都世田谷区池尻一丁目２−５
Japan,064-0912,南二十四条西八丁目２−４,札幌市中央区,北海道,JP,141.3488525,43.02720397,"43.02720397,141.3488525",北海道札幌市中央区南二十四条西八丁目２−４
Japan,338-0004,新中里四丁目１−８,さいたま市中央区,埼玉県,JP,139.63273708,35.87860968,"35.87860968,139.63273708",埼玉県さいたま市中央区新中里四丁目１−８
Japan,182-0004,国領町二丁目３−３,調布市,東京都,JP,139.55729754,35.63554562,"35.63554562,139.55729754",東京都調布市国領町二丁目３−３
Japan,466-0014,陶生町二丁目２−５,名古屋市昭和区,愛知県,JP,136.93705742,35.14035463,"35.14035463,136.93705742",愛知県名古屋市昭和区陶生町二丁目２−５
Japan,152-0035,碑文谷五丁目２−３,目黒区,東京都,JP,139.68169107,35.62337047,"35.62337047,139.68169107",東京都目黒区碑文谷五丁目２−３
Japan,813-0025,青葉四丁目２−８,福岡市東区,福岡県,JP,130.46171988,33.64959192,"33.64959192,130.46171988",福岡県福岡市東区青葉四丁目２−８
Japan,111-0042,松が谷一丁目３−８,台東区,東京都,JP,139.78703574,35.71217401,"35.71217401,139.78703574",東京都台東区松が谷一丁目３−８
Japan,320-0846,宝木町二丁目３−７,宇都宮市,栃木県,JP,139.84471941,36.58978368,"36.58978368,139.84471941",栃木県宇都宮市宝木町二丁目３−７
Japan,343-0831,越ヶ谷一丁目２−８,越谷市,埼玉県,JP,139.7893153,35.88833439,"35.88833439,139.7893153",埼玉県越谷市越ヶ谷一丁目２−８
Japan,532-0003,加島二丁目３−６,大阪市淀川区,大阪府,JP,135.46119487,34.7316434,"34.7316434,135.46119487",大阪府大阪市淀川区加島二丁目３−６
Japan,468-0020,平針南一丁目３−３,名古屋市天白区,愛知県,JP,137.00109046,35.11110513,"35.11110513,137.00109046",愛知県名古屋市天白区平針南一丁目３−３
Japan,182-0013,佐須町三丁目３−８,調布市,東京都,JP,139.55451851,35.65803217,"35.65803217,139.55451851",東京都調布市佐須町三丁目３−８
Japan,811-1314,桧原一丁目３−４,福岡市南区,福岡県,JP,130.39441041,33.54188825,"33.54188825,130.39441041",福岡県福岡市南区桧原一丁目３−４
Japan,595-0046,助松町四丁目１−１,泉大津市,大阪府,JP,135.41708486,34.51545481,"34.51545481,135.41708486",大阪府泉大津市助松町四丁目１−１
Japan,600-8224,西高辻町二丁目３−４,京都市下京区,京都府,JP,135.75273547,34.99945669,"34.99945669,135.75273547",京都府京都市下京区西高辻町二丁目３−４
Japan,157-0075,尾山台一丁目１−７,世田谷区,東京都,JP,139.65597781,35.5986718,"35.5986718,139.65597781",東京都世田谷区尾山台一丁目１−７
Japan,700-0002,宿本町一丁目２−２,岡山市北区,岡山県,JP,133.93790842,34.69872506,"34.69872506,133.93790842",岡山県岡山市北区宿本町一丁目２−２
Japan,062-0912,水車町四丁目３−２,札幌市豊平区,北海道,JP,141.36493443,43.04637414,"43.04637414,141.36493443",北海道札幌市豊平区水車町四丁目３−２
Japan,314-0345,土合南二丁目２−４,神栖市,茨城県,JP,140.77456957,35.78740151,"35.78740151,140.77456957",茨城県神栖市土合南二丁目２−４
Japan,230-0055,馬場六丁目１−８,横浜市鶴見区,神奈川県,JP,139.65111006,35.51261908,"35.51261908,139.65111006",神奈川県横浜市鶴見区馬場六丁目１−８
Japan,320-0061,高松町二丁目２−８,宇都宮市,栃木県,JP,139.8692638,36.66611506,"36.66611506,139.8692638",栃木県宇都宮市高松町二丁目２−８
Japan,251-0031,鵠沼松が岡三丁目１−５,藤沢市,神奈川県,JP,139.47627844,35.3219989,"35.3219989,139.47627844",神奈川県藤沢市鵠沼松が岡三丁目１−５
Japan,485-0043,大字三ツ渕一丁目３−３,小牧市,愛知県,JP,136.88993303,35.2950786,"35.2950786,136.88993303",愛知県小牧市大字三ツ渕一丁目３−３
Japan,343-0832,大字北後谷一丁目３−８,越谷市,埼玉県,JP,139.76214985,35.88622706,"35.88622706,139.76214985",埼玉県越谷市大字北後谷一丁目３−８
Japan,606-8031,下鴨半木町一丁目１−７,京都市左京区,京都府,JP,135.76477264,35.04913136,"35.04913136,135.76477264",京都府京都市左京区下鴨半木町一丁目１−７
Japan,602-8485,姥ケ榎木町一丁目１−４,京都市上京区,京都府,JP,135.74315332,35.03189005,"35.03189005,135.74315332",京都府京都市上京区姥ケ榎木町一丁目１−４
Japan,565-0872,金田町二丁目２−６,吹田市,大阪府,JP,135.50759466,34.75890058,"34.75890058,135.50759466",大阪府吹田市金田町二丁目２−６
Japan,158-0096,世田谷四丁目３−９,世田谷区,東京都,JP,139.65150504,35.64616988,"35.64616988,139.65150504",東京都世田谷区世田谷四丁目３−９
Japan,731-3173,緑井八丁目３−５,広島市安佐南区,広島県,JP,132.48562583,34.47787468,"34.47787468,132.48562583",広島県広島市安佐南区緑井八丁目３−５
Japan,454-0801,南脇町一丁目１−６,名古屋市中川区,愛知県,JP,136.86906818,35.14789646,"35.14789646,136.86906818",愛知県名古屋市中川区南脇町一丁目１−６
Japan,060-0016,北五条西二十八丁目３−５,札幌市中央区,北海道,JP,141.31271597,43.06214752,"43.06214752,141.31271597",北海道札幌市中央区北五条西二十八丁目３−５
Japan,336-0974,東大門一丁目３−２,さいたま市緑区,埼玉県,JP,139.73717309,35.88289662,"35.88289662,139.73717309",埼玉県さいたま市緑区東大門一丁目３−２
Japan,464-0064,山門町二丁目３−４,名古屋市千種区,愛知県,JP,136.95346935,35.16764997,"35.16764997,136.95346935",愛知県名古屋市千種区山門町二丁目３−４
Japan,920-0974,神野三丁目１−１,金沢市,石川県,JP,136.59258838,36.56487771,"36.56487771,136.59258838",石川県金沢市神野三丁目１−１
Japan,273-0034,東船橋五丁目３−１,船橋市,千葉県,JP,140.00477996,35.69373419,"35.69373419,140.00477996",千葉県船橋市東船橋五丁目３−１
Japan,370-0342,新田上江田町一丁目３−２,太田市,群馬県,JP,139.28649293,36.29434862,"36.29434862,139.28649293",群馬県太田市新田上江田町一丁目３−２
Japan,984-0817,保春院前丁一丁目２−２,仙台市若林区,宮城県,JP,140.90106984,38.24513501,"38.24513501,140.90106984",宮城県仙台市若林区保春院前丁一丁目２−２
Japan,135-0022,森下一丁目１−４,江東区,東京都,JP,139.79664239,35.68711344,"35.68711344,139.79664239",東京都江東区森下一丁目１−４
Japan,980-0003,台原六丁目２−４,仙台市青葉区,宮城県,JP,140.88024139,38.28082945,"38.28082945,140.88024139",宮城県仙台市青葉区台原六丁目２−４
Japan,133-0071,谷河内二丁目１−２,江戸川区,東京都,JP,139.90048695,35.69980102,"35.69980102,139.90048695",東京都江戸川区谷河内二丁目１−２
Japan,441-8085,青竹町一丁目３−２,豊橋市,愛知県,JP,137.34962867,34.76049979,"34.76049979,137.34962867",愛知県豊橋市青竹町一丁目３−２
Japan,486-0935,藤山台七丁目１−６,春日井市,愛知県,JP,137.02926986,35.27922114,"35.27922114,137.02926986",愛知県春日井市藤山台七丁目１−６
Japan,816-0801,春日公園一丁目２−３,春日市,福岡県,JP,130.47647174,33.52904798,"33.52904798,130.47647174",福岡県春日市春日公園一丁目２−３
Japan,062-0903,豊平三条十一丁目２−３,札幌市豊平区,北海道,JP,141.38031706,43.04705881,"43.04705881,141.38031706",北海道札幌市豊平区豊平三条十一丁目２−３
Japan,230-0043,生麦二丁目２−８,横浜市鶴見区,神奈川県,JP,139.67361306,35.49320453,"35.49320453,139.67361306",神奈川県横浜市鶴見区生麦二丁目２−８
Japan,813-0043,社領二丁目１−２,福岡市東区,福岡県,JP,130.43302492,33.61246112,"33.61246112,130.43302492",福岡県福岡市東区社領二丁目１−２
Japan,180-0001,吉祥寺南町一丁目２−６,武蔵野市,東京都,JP,139.58133859,35.70144883,"35.70144883,139.58133859",東京都武蔵野市吉祥寺南町一丁目２−６
Japan,134-0081,本一色三丁目３−８,江戸川区,東京都,JP,139.87128609,35.72032774,"35.72032774,139.87128609",東京都江戸川区本一色三丁目３−８
Japan,437-0053,西ケ崎一丁目１−６,袋井市,静岡県,JP,137.91331402,34.68937567,"34.68937567,137.91331402",静岡県袋井市西ケ崎一丁目１−６
Japan,921-8025,二俣町一丁目３−１,金沢市,石川県,JP,136.78746366,36.5444683,"36.5444683,136.78746366",石川県金沢市二俣町一丁目３−１
Japan,242-0004,柳橋四丁目１−４,大和市,神奈川県,JP,139.46138442,35.45832145,"35.45832145,139.46138442",神奈川県大和市柳橋四丁目１−４
Japan,454-0855,昭明町四丁目２−４,名古屋市中川区,愛知県,JP,136.87032024,35.12127964,"35.12127964,136.87032024",愛知県名古屋市中川区昭明町四丁目２−４
Japan,223-0052,綱島西四丁目２−９,横浜市港北区,神奈川県,JP,139.6279586,35.54119568,"35.54119568,139.6279586",神奈川県横浜市港北区綱島西四丁目２−９
Japan,567-0806,彩都やまぶき四丁目２−６,茨木市,大阪府,JP,135.52093076,34.85930542,"34.85930542,135.52093076",大阪府茨木市彩都やまぶき四丁目２−６
Japan,064-0941,旭ケ丘一丁目１−９,札幌市中央区,北海道,JP,141.31909368,43.04308838,"43.04308838,141.31909368",北海道札幌市中央区旭ケ丘一丁目１−９
Japan,920-3106,西泉二丁目１−３,金沢市,石川県,JP,136.63390146,36.54771022,"36.54771022,136.63390146",石川県金沢市西泉二丁目１−３
Japan,154-0005,成城五丁目１−９,世田谷区,東京都,JP,139.59597652,35.64248504,"35.64248504,139.59597652",東京都世田谷区成城五丁目１−９
Japan,154-0005,成城五丁目３−５,世田谷区,東京都,JP,139.59513913,35.64284106,"35.64284106,139.59513913",東京都世田谷区成城五丁目３−５
Japan,174-0071,宮本町一丁目３−２,板橋区,東京都,JP,139.69993125,35.76465119,"35.76465119,139.69993125",東京都板橋区宮本町一丁目３−２
Japan,131-0045,向島三丁目１−９,墨田区,東京都,JP,139.80870099,35.71244635,"35.71244635,139.80870099",東京都墨田区向島三丁目１−９
Japan,564-0044,出口町一丁目２−８,吹田市,大阪府,JP,135.51422977,34.76434922,"34.76434922,135.51422977",大阪府吹田市出口町一丁目２−８
Japan,448-0848,東新町三丁目３−３,刈谷市,愛知県,JP,137.01197381,35.00682676,"35.00682676,137.01197381",愛知県刈谷市東新町三丁目３−３
Japan,274-0822,西習志野一丁目２−８,船橋市,千葉県,JP,140.03302733,35.72421784,"35.72421784,140.03302733",千葉県船橋市西習志野一丁目２−８
Japan,440-0095,清須町一丁目２−７,豊橋市,愛知県,JP,137.35191687,34.78240339,"34.78240339,137.35191687",愛知県豊橋市清須町一丁目２−７
Japan,116-0012,南千住七丁目３−５,荒川区,東京都,JP,139.79914653,35.73638814,"35.73638814,139.79914653",東京都荒川区南千住七丁目３−５
Japan,565-0841,佐竹台五丁目２−４,吹田市,大阪府,JP,135.51795503,34.78995318,"34.78995318,135.51795503",大阪府吹田市佐竹台五丁目２−４
Japan,222-0035,大曽根二丁目２−８,横浜市港北区,神奈川県,JP,139.63208077,35.53000157,"35.53000157,139.63208077",神奈川県横浜市港北区大曽根二丁目２−８
Japan,330-0046,上木崎四丁目１−４,さいたま市浦和区,埼玉県,JP,139.64493209,35.88631165,"35.88631165,139.64493209",埼玉県さいたま市浦和区上木崎四丁目１−４
Japan,158-0082,経堂一丁目２−３,世田谷区,東京都,JP,139.63518279,35.64899595,"35.64899595,139.63518279",東京都世田谷区経堂一丁目２−３
Japan,179-0076,栄町一丁目１−１,練馬区,東京都,JP,139.66941635,35.73913441,"35.73913441,139.66941635",東京都練馬区栄町一丁目１−１
Japan,145-0075,多摩川二丁目１−２,大田区,東京都,JP,139.70075101,35.55794311,"35.55794311,139.70075101",東京都大田区多摩川二丁目１−２
Japan,731-3164,長楽寺二丁目１−９,広島市安佐南区,広島県,JP,132.42965202,34.46893106,"34.46893106,132.42965202",広島県広島市安佐南区長楽寺二丁目１−９
Japan,487-0005,大手田酉町一丁目３−７,春日井市,愛知県,JP,136.95705685,35.26052095,"35.26052095,136.95705685",愛知県春日井市大手田酉町一丁目３−７
Japan,168-0063,成田西二丁目１−７,杉並区,東京都,JP,139.62664968,35.6887663,"35.6887663,139.62664968",東京都杉並区成田西二丁目１−７
Japan,320-0818,旭二丁目１−６,宇都宮市,栃木県,JP,139.88574638,36.55148015,"36.55148015,139.88574638",栃木県宇都宮市旭二丁目１−６
Japan,145-0074,下丸子二丁目１−２,大田区,東京都,JP,139.68475483,35.56387025,"35.56387025,139.68475483",東京都大田区下丸子二丁目１−２
Japan,176-0014,中村北三丁目２−８,練馬区,東京都,JP,139.63976887,35.73580126,"35.73580126,139.63976887",東京都練馬区中村北三丁目２−８
Japan,274-0805,藤原七丁目３−５,船橋市,千葉県,JP,139.98660846,35.74238937,"35.74238937,139.98660846",千葉県船橋市藤原七丁目３−５
Japan,454-0927,打中一丁目３−９,名古屋市中川区,愛知県,JP,136.84370703,35.13904416,"35.13904416,136.84370703",愛知県名古屋市中川区打中一丁目３−９
Japan,458-0926,高根山一丁目２−８,名古屋市緑区,愛知県,JP,136.94563479,35.04550621,"35.04550621,136.94563479",愛知県名古屋市緑区高根山一丁目２−８
Japan,731-3173,緑井四丁目１−５,広島市安佐南区,広島県,JP,132.47545164,34.4706185,"34.4706185,132.47545164",広島県広島市安佐南区緑井四丁目１−５
Japan,921-8066,みどり二丁目３−２,金沢市,石川県,JP,136.58635207,36.56979557,"36.56979557,136.58635207",石川県金沢市みどり二丁目３−２
Japan,447-0811,古川町三丁目１−６,碧南市,愛知県,JP,137.0038167,34.90899294,"34.90899294,137.0038167",愛知県碧南市古川町三丁目１−６
Japan,981-0912,赤坂二丁目１−６,仙台市青葉区,宮城県,JP,140.74281929,38.2925013,"38.2925013,140.74281929",宮城県仙台市青葉区赤坂二丁目１−６
Japan,819-0205,大字下山門一丁目３−３,福岡市西区,福岡県,JP,130.29500413,33.57452053,"33.57452053,130.29500413",福岡県福岡市西区大字下山門一丁目３−３
Japan,664-0884,梅ノ木一丁目３−８,伊丹市,兵庫県,JP,135.41469365,34.77594954,"34.77594954,135.41469365",兵庫県伊丹市梅ノ木一丁目３−８
Japan,701-1351,南中央町一丁目３−６,岡山市北区,岡山県,JP,133.92410681,34.65614337,"34.65614337,133.92410681",岡山県岡山市北区南中央町一丁目３−６
Japan,276-0034,八千代台西八丁目１−２,八千代市,千葉県,JP,140.08032174,35.69872917,"35.69872917,140.08032174",千葉県八千代市八千代台西八丁目１−２
Japan,174-0062,赤塚五丁目３−５,板橋区,東京都,JP,139.64280751,35.78017112,"35.78017112,139.64280751",東京都板橋区赤塚五丁目３−５
Japan,604-0915,大黒町一丁目２−２,京都市中京区,京都府,JP,135.7694148,35.00864123,"35.00864123,135.7694148",京都府京都市中京区大黒町一丁目２−２
Japan,595-0041,下之町二丁目２−６,泉大津市,大阪府,JP,135.39820667,34.5030081,"34.5030081,135.39820667",大阪府泉大津市下之町二丁目２−６
Japan,982-0822,四郎丸一丁目２−３,仙台市太白区,宮城県,JP,140.91745002,38.19228576,"38.19228576,140.91745002",宮城県仙台市太白区四郎丸一丁目２−３
Japan,176-0002,光が丘六丁目１−４,練馬区,東京都,JP,139.62343587,35.76055727,"35.76055727,139.62343587",東京都練馬区光が丘六丁目１−４
Japan,343-0023,登戸町二丁目１−２,越谷市,埼玉県,JP,139.79683808,35.87332092,"35.87332092,139.79683808",埼玉県越谷市登戸町二丁目１−２
Japan,701-0212,泉田五丁目２−１,岡山市南区,岡山県,JP,133.91164859,34.62395203,"34.62395203,133.91164859",岡山県岡山市南区泉田五丁目２−１
Japan,454-0812,五月通三丁目３−１,名古屋市中川区,愛知県,JP,136.87360981,35.15393493,"35.15393493,136.87360981",愛知県名古屋市中川区五月通三丁目３−１
Japan,158-0098,北烏山二丁目３−２,世田谷区,東京都,JP,139.59938013,35.68015501,"35.68015501,139.59938013",東京都世田谷区北烏山二丁目３−２
Japan,602-8415,東町一丁目３−９,京都市上京区,京都府,JP,135.75306484,35.0292452,"35.0292452,135.75306484",京都府京都市上京区東町一丁目３−９
Japan,486-0917,東野町西三丁目１−８,春日井市,愛知県,JP,136.97952173,35.26941659,"35.26941659,136.97952173",愛知県春日井市東野町西三丁目１−８
Japan,323-0805,西城南四丁目３−８,小山市,栃木県,JP,139.80254736,36.29347214,"36.29347214,139.80254736",栃木県小山市西城南四丁目３−８
Japan,981-1248,愛島台六丁目２−９,名取市,宮城県,JP,140.81698891,38.14655654,"38.14655654,140.81698891",宮城県名取市愛島台六丁目２−９
Japan,212-0007,北加瀬二丁目２−２,川崎市幸区,神奈川県,JP,139.66175076,35.5520965,"35.5520965,139.66175076",神奈川県川崎市幸区北加瀬二丁目２−２
Japan,133-0043,西小岩三丁目３−６,江戸川区,東京都,JP,139.87735164,35.73826909,"35.73826909,139.87735164",東京都江戸川区西小岩三丁目３−６
Japan,454-0816,中京南通二丁目２−３,名古屋市中川区,愛知県,JP,136.87372585,35.14821169,"35.14821169,136.87372585",愛知県名古屋市中川区中京南通二丁目２−３
Japan,442-0884,国府町二丁目３−３,豊川市,愛知県,JP,137.32765754,34.83091746,"34.83091746,137.32765754",愛知県豊川市国府町二丁目３−３
Japan,210-0001,伊勢町二丁目２−５,川崎市川崎区,神奈川県,JP,139.72135923,35.53214588,"35.53214588,139.72135923",神奈川県川崎市川崎区伊勢町二丁目２−５
Japan,132-0014,東小岩一丁目１−４,江戸川区,東京都,JP,139.89251447,35.72048226,"35.72048226,139.89251447",東京都江戸川区東小岩一丁目１−４
Japan,920-0036,水淵町二丁目１−２,金沢市,石川県,JP,136.70239689,36.50022247,"36.50022247,136.70239689",石川県金沢市水淵町二丁目１−２
Japan,920-0122,畝田町一丁目２−１,金沢市,石川県,JP,136.60499803,36.59384682,"36.59384682,136.60499803",石川県金沢市畝田町一丁目２−１
Japan,146-0081,大森中三丁目３−８,大田区,東京都,JP,139.7314143,35.56540049,"35.56540049,139.7314143",東京都大田区大森中三丁目３−８
Japan,221-0825,入江二丁目１−１,横浜市神奈川区,神奈川県,JP,139.64904208,35.49197162,"35.49197162,139.64904208",神奈川県横浜市神奈川区入江二丁目１−１
Japan,602-8254,竪社南半町二丁目３−６,京都市上京区,京都府,JP,135.74741777,35.0354578,"35.0354578,135.74741777",京都府京都市上京区竪社南半町二丁目３−６
Japan,920-0854,南御所町二丁目２−４,金沢市,石川県,JP,136.68200127,36.58064264,"36.58064264,136.68200127",石川県金沢市南御所町二丁目２−４
Japan,595-0016,条南町一丁目２−４,泉大津市,大阪府,JP,135.41868728,34.50851512,"34.50851512,135.41868728",大阪府泉大津市条南町一丁目２−４
Japan,333-0802,芝富士二丁目３−２,川口市,埼玉県,JP,139.67844361,35.8362676,"35.8362676,139.67844361",埼玉県川口市芝富士二丁目３−２
Japan,411-0932,南一色二丁目１−１,駿東郡長泉町,静岡県,JP,138.89483504,35.15695162,"35.15695162,138.89483504",静岡県駿東郡長泉町南一色二丁目１−１
Japan,133-0064,船堀七丁目２−８,江戸川区,東京都,JP,139.86862866,35.67818228,"35.67818228,139.86862866",東京都江戸川区船堀七丁目２−８
Japan,902-0067,楚辺三丁目３−７,那覇市,沖縄県,JP,127.68350087,26.20676779,"26.20676779,127.68350087",沖縄県那覇市楚辺三丁目３−７
Japan,920-0966,示野中町二丁目３−２,金沢市,石川県,JP,136.61776973,36.57703523,"36.57703523,136.61776973",石川県金沢市示野中町二丁目３−２
Japan,567-0831,総持寺台一丁目１−８,茨木市,大阪府,JP,135.58653295,34.82431521,"34.82431521,135.58653295",大阪府茨木市総持寺台一丁目１−８
Japan,595-0001,尾井千原町一丁目３−４,泉大津市,大阪府,JP,135.43175371,34.51123302,"34.51123302,135.43175371",大阪府泉大津市尾井千原町一丁目３−４
Japan,224-0042,川和台二丁目１−２,横浜市都筑区,神奈川県,JP,139.55428844,35.52777145,"35.52777145,139.55428844",神奈川県横浜市都筑区川和台二丁目１−２
Japan,664-0023,森本七丁目１−９,伊丹市,兵庫県,JP,135.43611722,34.78152555,"34.78152555,135.43611722",兵庫県伊丹市森本七丁目１−９
Japan,921-8046,馬替一丁目３−５,金沢市,石川県,JP,136.62394326,36.52368329,"36.52368329,136.62394326",石川県金沢市馬替一丁目３−５
Japan,274-0803,三山八丁目２−７,船橋市,千葉県,JP,140.05854383,35.69613946,"35.69613946,140.05854383",千葉県船橋市三山八丁目２−７
Japan,862-0908,新南部一丁目２−１,熊本市東区,熊本県,JP,130.74420284,32.81669703,"32.81669703,130.74420284",熊本県熊本市東区新南部一丁目２−１
Japan,984-0065,志波町二丁目３−６,仙台市若林区,宮城県,JP,140.91295953,38.25063351,"38.25063351,140.91295953",宮城県仙台市若林区志波町二丁目３−６
Japan,177-0051,西大泉二丁目１−６,練馬区,東京都,JP,139.57374883,35.75808413,"35.75808413,139.57374883",東京都練馬区西大泉二丁目１−６
Japan,816-0812,仲畑三丁目１−１,大野城市,福岡県,JP,130.47324594,33.55242722,"33.55242722,130.47324594",福岡県大野城市仲畑三丁目１−１
Japan,454-0811,丸米町一丁目２−９,名古屋市中川区,愛知県,JP,136.87145674,35.13379037,"35.13379037,136.87145674",愛知県名古屋市中川区丸米町一丁目２−９
Japan,920-0365,上荒屋四丁目３−８,金沢市,石川県,JP,136.59322655,36.55556782,"36.55556782,136.59322655",石川県金沢市上荒屋四丁目３−８
Japan,451-0015,康生通二丁目３−８,名古屋市西区,愛知県,JP,136.88428279,35.19697893,"35.19697893,136.88428279",愛知県名古屋市西区康生通二丁目３−８
Japan,064-0923,南四条西五丁目２−２,札幌市中央区,北海道,JP,141.35163303,43.05436062,"43.05436062,141.35163303",北海道札幌市中央区南四条西五丁目２−２
Japan,332-0016,西川口五丁目３−１,川口市,埼玉県,JP,139.70326857,35.80742438,"35.80742438,139.70326857",埼玉県川口市西川口五丁目３−１
Japan,300-1252,筑穂三丁目２−８,つくば市,茨城県,JP,140.07932749,36.13066211,"36.13066211,140.07932749",茨城県つくば市筑穂三丁目２−８
Japan,701-1346,津高台四丁目２−８,岡山市北区,岡山県,JP,133.91463386,34.70088818,"34.70088818,133.91463386",岡山県岡山市北区津高台四丁目２−８
Japan,475-0808,川崎町二丁目３−２,半田市,愛知県,JP,136.9263875,34.87099152,"34.87099152,136.9263875",愛知県半田市川崎町二丁目３−２
Japan,984-0802,卸町三丁目１−８,仙台市若林区,宮城県,JP,140.92313826,38.25965145,"38.25965145,140.92313826",宮城県仙台市若林区卸町三丁目１−８
Japan,334-0055,戸塚南五丁目１−８,川口市,埼玉県,JP,139.74148531,35.86416336,"35.86416336,139.74148531",埼玉県川口市戸塚南五丁目１−８
Japan,223-0055,樽町一丁目１−８,横浜市港北区,神奈川県,JP,139.6356594,35.52662221,"35.52662221,139.6356594",神奈川県横浜市港北区樽町一丁目１−８
Japan,440-0037,平川南町二丁目２−５,豊橋市,愛知県,JP,137.42078686,34.76156894,"34.76156894,137.42078686",愛知県豊橋市平川南町二丁目２−５
Japan,158-0092,代沢三丁目３−９,世田谷区,東京都,JP,139.67050537,35.65626919,"35.65626919,139.67050537",東京都世田谷区代沢三丁目３−９
Japan,260-0018,院内二丁目２−５,千葉市中央区,千葉県,JP,140.12623471,35.61261174,"35.61261174,140.12623471",千葉県千葉市中央区院内二丁目２−５
Japan,444-0204,西魚町二丁目１−１,岡崎市,愛知県,JP,137.15731378,34.96204764,"34.96204764,137.15731378",愛知県岡崎市西魚町二丁目１−１
Japan,602-0831,南町一丁目１−１,京都市上京区,京都府,JP,135.76998428,35.01739792,"35.01739792,135.76998428",京都府京都市上京区南町一丁目１−１
Japan,135-0001,猿江二丁目３−３,江東区,東京都,JP,139.81638441,35.68523403,"35.68523403,139.81638441",東京都江東区猿江二丁目３−３
Japan,181-0014,井口三丁目１−８,三鷹市,東京都,JP,139.54216283,35.69359284,"35.69359284,139.54216283",東京都三鷹市井口三丁目１−８
Japan,162-0831,下落合一丁目３−６,新宿区,東京都,JP,139.70034125,35.71510852,"35.71510852,139.70034125",東京都新宿区下落合一丁目３−６
Japan,812-0042,南八幡町一丁目３−８,福岡市博多区,福岡県,JP,130.45568687,33.54575517,"33.54575517,130.45568687",福岡県福岡市博多区南八幡町一丁目３−８
Japan,372-0854,飯島町二丁目２−３,伊勢崎市,群馬県,JP,139.22198845,36.26599468,"36.26599468,139.22198845",群馬県伊勢崎市飯島町二丁目２−３
Japan,171-0022,高松三丁目３−７,豊島区,東京都,JP,139.69688507,35.74014905,"35.74014905,139.69688507",東京都豊島区高松三丁目３−７
Japan,252-0234,相模原五丁目２−１,相模原市中央区,神奈川県,JP,139.37422903,35.57762301,"35.57762301,139.37422903",神奈川県相模原市中央区相模原五丁目２−１
Japan,602-8038,西之口町二丁目１−８,京都市上京区,京都府,JP,135.75402094,35.02566413,"35.02566413,135.75402094",京都府京都市上京区西之口町二丁目１−８
Japan,144-0053,南馬込二丁目２−２,大田区,東京都,JP,139.71734917,35.59074423,"35.59074423,139.71734917",東京都大田区南馬込二丁目２−２
Japan,321-0941,東今泉二丁目２−４,宇都宮市,栃木県,JP,139.91988759,36.55860727,"36.55860727,139.91988759",栃木県宇都宮市東今泉二丁目２−４
Japan,275-0002,藤崎五丁目２−５,習志野市,千葉県,JP,140.04175931,35.69233903,"35.69233903,140.04175931",千葉県習志野市藤崎五丁目２−５
Japan,154-0013,駒沢五丁目２−５,世田谷区,東京都,JP,139.65746267,35.625071,"35.625071,139.65746267",東京都世田谷区駒沢五丁目２−５
Japan,463-0038,白山二丁目３−１,名古屋市守山区,愛知県,JP,137.02813209,35.19586366,"35.19586366,137.02813209",愛知県名古屋市守山区白山二丁目３−１
Japan,151-0064,神宮前三丁目２−２,渋谷区,東京都,JP,139.71047233,35.66949799,"35.66949799,139.71047233",東京都渋谷区神宮前三丁目２−２
Japan,920-0984,粟崎町二丁目２−７,金沢市,石川県,JP,136.62706309,36.62821433,"36.62821433,136.62706309",石川県金沢市粟崎町二丁目２−７
Japan,135-0031,豊洲六丁目１−７,江東区,東京都,JP,139.78676232,35.64716151,"35.64716151,139.78676232",東京都江東区豊洲六丁目１−７
Japan,062-0039,中の島二条四丁目３−７,札幌市豊平区,北海道,JP,141.36027444,43.03282424,"43.03282424,141.36027444",北海道札幌市豊平区中の島二条四丁目３−７
Japan,251-0037,高倉一丁目１−６,藤沢市,神奈川県,JP,139.47138259,35.41238922,"35.41238922,139.47138259",神奈川県藤沢市高倉一丁目１−６
Japan,606-8014,花脊原地町二丁目３−５,京都市左京区,京都府,JP,135.7916374,35.23549249,"35.23549249,135.7916374",京都府京都市左京区花脊原地町二丁目３−５
Japan,373-0016,矢田堀町二丁目３−６,太田市,群馬県,JP,139.38040268,36.33488372,"36.33488372,139.38040268",群馬県太田市矢田堀町二丁目３−６
Japan,441-0311,若宮町二丁目２−９,豊川市,愛知県,JP,137.38753939,34.8224296,"34.8224296,137.38753939",愛知県豊川市若宮町二丁目２−９
Japan,920-1135,菊川一丁目３−９,金沢市,石川県,JP,136.66240254,36.5501862,"36.5501862,136.66240254",石川県金沢市菊川一丁目３−９
Japan,451-0054,又穂町四丁目３−６,名古屋市西区,愛知県,JP,136.89430374,35.20525535,"35.20525535,136.89430374",愛知県名古屋市西区又穂町四丁目３−６
Japan,564-0031,山田南二丁目１−２,吹田市,大阪府,JP,135.53737086,34.79016709,"34.79016709,135.53737086",大阪府吹田市山田南二丁目１−２
Japan,510-0234,江島町二丁目１−３,鈴鹿市,三重県,JP,136.58640923,34.84318804,"34.84318804,136.58640923",三重県鈴鹿市江島町二丁目１−３
Japan,276-0034,八千代台西八丁目２−１,八千代市,千葉県,JP,140.08197371,35.69987364,"35.69987364,140.08197371",千葉県八千代市八千代台西八丁目２−１
Japan,860-0036,保田窪一丁目２−１,熊本市中央区,熊本県,JP,130.74266596,32.806128,"32.806128,130.74266596",熊本県熊本市中央区保田窪一丁目２−１
Japan,176-0002,光が丘一丁目２−９,練馬区,東京都,JP,139.63919552,35.76785308,"35.76785308,139.63919552",東京都練馬区光が丘一丁目２−９
Japan,133-0041,東葛西六丁目１−４,江戸川区,東京都,JP,139.87826057,35.66175087,"35.66175087,139.87826057",東京都江戸川区東葛西六丁目１−４
Japan,167-0042,宮前一丁目１−５,杉並区,東京都,JP,139.61108473,35.69028488,"35.69028488,139.61108473",東京都杉並区宮前一丁目１−５
Japan,816-0832,松ヶ丘五丁目２−７,春日市,福岡県,JP,130.45564317,33.50787338,"33.50787338,130.45564317",福岡県春日市松ヶ丘五丁目２−７
Japan,920-1332,角間町一丁目２−４,金沢市,石川県,JP,136.7085663,36.54527133,"36.54527133,136.7085663",石川県金沢市角間町一丁目２−４
Japan,277-0032,中新宿三丁目２−３,柏市,千葉県,JP,139.94699326,35.83309586,"35.83309586,139.94699326",千葉県柏市中新宿三丁目２−３
Japan,170-0011,北大塚一丁目３−８,豊島区,東京都,JP,139.73283207,35.73360403,"35.73360403,139.73283207",東京都豊島区北大塚一丁目３−８
Japan,444-3511,上明大寺町一丁目１−４,岡崎市,愛知県,JP,137.16846207,34.95226993,"34.95226993,137.16846207",愛知県岡崎市上明大寺町一丁目１−４
Japan,440-0835,飯村南四丁目３−４,豊橋市,愛知県,JP,137.42583955,34.74077663,"34.74077663,137.42583955",愛知県豊橋市飯村南四丁目３−４
Japan,335-0024,本町二丁目２−５,戸田市,埼玉県,JP,139.67513142,35.8088834,"35.8088834,139.67513142",埼玉県戸田市本町二丁目２−５
Japan,171-0051,巣鴨五丁目１−６,豊島区,東京都,JP,139.73524091,35.73906917,"35.73906917,139.73524091",東京都豊島区巣鴨五丁目１−６
Japan,273-0011,丸山三丁目２−７,船橋市,千葉県,JP,139.99142887,35.7527155,"35.7527155,139.99142887",千葉県船橋市丸山三丁目２−７
Japan,486-0814,勝川町八丁目２−７,春日井市,愛知県,JP,136.9548907,35.22845844,"35.22845844,136.9548907",愛知県春日井市勝川町八丁目２−７
Japan,274-0077,宮本一丁目２−７,船橋市,千葉県,JP,139.99262549,35.69896712,"35.69896712,139.99262549",千葉県船橋市宮本一丁目２−７
Japan,173-0036,高島平八丁目３−１,板橋区,東京都,JP,139.66287597,35.78972328,"35.78972328,139.66287597",東京都板橋区高島平八丁目３−１
Japan,920-0802,北陽台二丁目３−５,金沢市,石川県,JP,136.71973031,36.59689674,"36.59689674,136.71973031",石川県金沢市北陽台二丁目３−５
Japan,158-0095,下馬四丁目３−９,世田谷区,東京都,JP,139.67870754,35.63544725,"35.63544725,139.67870754",東京都世田谷区下馬四丁目３−９
Japan,321-0147,針ケ谷町二丁目２−８,宇都宮市,栃木県,JP,139.85048726,36.48648211,"36.48648211,139.85048726",栃木県宇都宮市針ケ谷町二丁目２−８
Japan,177-0045,東大泉六丁目１−８,練馬区,東京都,JP,139.58261703,35.74502525,"35.74502525,139.58261703",東京都練馬区東大泉六丁目１−８
Japan,444-0216,須淵町二丁目１−５,岡崎市,愛知県,JP,137.26328322,34.96923609,"34.96923609,137.26328322",愛知県岡崎市須淵町二丁目１−５
Japan,162-0836,西早稲田二丁目２−２,新宿区,東京都,JP,139.71330441,35.70903854,"35.70903854,139.71330441",東京都新宿区西早稲田二丁目２−２
Japan,225-0014,しらとり台一丁目２−１,横浜市青葉区,神奈川県,JP,139.51285095,35.53516046,"35.53516046,139.51285095",神奈川県横浜市青葉区しらとり台一丁目２−１
Japan,158-0097,粕谷一丁目３−７,世田谷区,東京都,JP,139.61159378,35.66098241,"35.66098241,139.61159378",東京都世田谷区粕谷一丁目３−７
Japan,486-0913,大留町六丁目２−９,春日井市,愛知県,JP,137.02455157,35.25778426,"35.25778426,137.02455157",愛知県春日井市大留町六丁目２−９
Japan,252-0812,藤沢五丁目１−２,藤沢市,神奈川県,JP,139.46718426,35.34892321,"35.34892321,139.46718426",神奈川県藤沢市藤沢五丁目１−２
Japan,474-0072,北山町三丁目３−７,大府市,愛知県,JP,136.96818129,35.03139626,"35.03139626,136.96818129",愛知県大府市北山町三丁目３−７
Japan,274-0824,本町三丁目２−２,船橋市,千葉県,JP,139.98800028,35.69593577,"35.69593577,139.98800028",千葉県船橋市本町三丁目２−２
Japan,486-0948,高山町四丁目１−６,春日井市,愛知県,JP,136.95415444,35.25966546,"35.25966546,136.95415444",愛知県春日井市高山町四丁目１−６
Japan,251-0875,城南三丁目３−５,藤沢市,神奈川県,JP,139.46021464,35.34973023,"35.34973023,139.46021464",神奈川県藤沢市城南三丁目３−５
Japan,604-0065,上松屋町二丁目１−７,京都市中京区,京都府,JP,135.75592352,35.01225176,"35.01225176,135.75592352",京都府京都市中京区上松屋町二丁目１−７
Japan,814-0131,別府二丁目２−７,福岡市城南区,福岡県,JP,130.36889275,33.5730136,"33.5730136,130.36889275",福岡県福岡市城南区別府二丁目２−７
Japan,466-0013,松風町二丁目１−７,名古屋市昭和区,愛知県,JP,136.93145132,35.14678616,"35.14678616,136.93145132",愛知県名古屋市昭和区松風町二丁目１−７
Japan,003-0013,中央二条七丁目３−４,札幌市白石区,北海道,JP,141.40321447,43.05453608,"43.05453608,141.40321447",北海道札幌市白石区中央二条七丁目３−４
Japan,185-0011,高木町三丁目３−９,国分寺市,東京都,JP,139.43966915,35.71336363,"35.71336363,139.43966915",東京都国分寺市高木町三丁目３−９
Japan,242-0014,中央林間二丁目１−９,大和市,神奈川県,JP,139.44681529,35.50360787,"35.50360787,139.44681529",神奈川県大和市中央林間二丁目１−９
Japan,273-0023,三咲一丁目２−１,船橋市,千葉県,JP,140.0277243,35.74395008,"35.74395008,140.0277243",千葉県船橋市三咲一丁目２−１
Japan,321-0923,下栗一丁目１−９,宇都宮市,栃木県,JP,139.8996534,36.53838405,"36.53838405,139.8996534",栃木県宇都宮市下栗一丁目１−９
Japan,277-0924,柏六丁目３−３,柏市,千葉県,JP,139.97727662,35.86349015,"35.86349015,139.97727662",千葉県柏市柏六丁目３−３
Japan,700-0051,下伊福上町一丁目３−３,岡山市北区,岡山県,JP,133.90259092,34.66828924,"34.66828924,133.90259092",岡山県岡山市北区下伊福上町一丁目３−３
Japan,920-0857,城南二丁目１−４,金沢市,石川県,JP,136.66495147,36.54863995,"36.54863995,136.66495147",石川県金沢市城南二丁目１−４
Japan,064-0803,南十二条西八丁目２−１,札幌市中央区,北海道,JP,141.34827674,43.04505275,"43.04505275,141.34827674",北海道札幌市中央区南十二条西八丁目２−１
Japan,152-0035,碑文谷六丁目２−３,目黒区,東京都,JP,139.68368396,35.62639708,"35.62639708,139.68368396",東京都目黒区碑文谷六丁目２−３
Japan,279-0025,鉄鋼通り二丁目２−２,浦安市,千葉県,JP,139.89906902,35.63402446,"35.63402446,139.89906902",千葉県浦安市鉄鋼通り二丁目２−２
Japan,448-0810,八幡町七丁目１−４,刈谷市,愛知県,JP,136.99042791,34.99044169,"34.99044169,136.99042791",愛知県刈谷市八幡町七丁目１−４
Japan,156-0054,瀬田五丁目１−９,世田谷区,東京都,JP,139.624886,35.62554352,"35.62554352,139.624886",東京都世田谷区瀬田五丁目１−９
Japan,444-0522,満全町二丁目２−９,西尾市,愛知県,JP,137.05216264,34.86830781,"34.86830781,137.05216264",愛知県西尾市満全町二丁目２−９
Japan,486-0916,鳥居松町八丁目３−２,春日井市,愛知県,JP,136.97900595,35.25018984,"35.25018984,136.97900595",愛知県春日井市鳥居松町八丁目３−２
Japan,464-0034,清住町二丁目３−６,名古屋市千種区,愛知県,JP,136.9715914,35.16267413,"35.16267413,136.9715914",愛知県名古屋市千種区清住町二丁目３−６
Japan,143-0004,仲六郷三丁目３−２,大田区,東京都,JP,139.71118139,35.5463506,"35.5463506,139.71118139",東京都大田区仲六郷三丁目３−２
Japan,216-0013,有馬九丁目１−５,川崎市宮前区,神奈川県,JP,139.57011076,35.57244826,"35.57244826,139.57011076",神奈川県川崎市宮前区有馬九丁目１−５
Japan,251-0023,鵠沼藤が谷四丁目２−４,藤沢市,神奈川県,JP,139.48270612,35.32787321,"35.32787321,139.48270612",神奈川県藤沢市鵠沼藤が谷四丁目２−４
Japan,251-0051,渡内四丁目３−７,藤沢市,神奈川県,JP,139.50554959,35.35179592,"35.35179592,139.50554959",神奈川県藤沢市渡内四丁目３−７
Japan,143-0004,仲六郷二丁目１−９,大田区,東京都,JP,139.71402472,35.55127861,"35.55127861,139.71402472",東京都大田区仲六郷二丁目１−９
Japan,274-0082,大穴南二丁目１−９,船橋市,千葉県,JP,140.03609692,35.74024642,"35.74024642,140.03609692",千葉県船橋市大穴南二丁目１−９
Japan,921-8053,袋畠町一丁目１−４,金沢市,石川県,JP,136.60537783,36.57839479,"36.57839479,136.60537783",石川県金沢市袋畠町一丁目１−４
Japan,305-0877,葛城根崎一丁目１−１,つくば市,茨城県,JP,140.08811021,36.07955161,"36.07955161,140.08811021",茨城県つくば市葛城根崎一丁目１−１
Japan,513-0814,東旭が丘三丁目２−７,鈴鹿市,三重県,JP,136.57825363,34.84608011,"34.84608011,136.57825363",三重県鈴鹿市東旭が丘三丁目２−７
Japan,567-0028,横江一丁目２−９,茨木市,大阪府,JP,135.5664775,34.78771446,"34.78771446,135.5664775",大阪府茨木市横江一丁目２−９
Japan,175-0045,中台三丁目２−８,板橋区,東京都,JP,139.67815981,35.77205925,"35.77205925,139.67815981",東京都板橋区中台三丁目２−８
Japan,277-0813,加賀一丁目２−１,柏市,千葉県,JP,139.97057511,35.83316227,"35.83316227,139.97057511",千葉県柏市加賀一丁目２−１
Japan,700-0961,北長瀬本町二丁目２−７,岡山市北区,岡山県,JP,133.88670454,34.65599811,"34.65599811,133.88670454",岡山県岡山市北区北長瀬本町二丁目２−７
Japan,156-0044,上北沢一丁目３−１,世田谷区,東京都,JP,139.62506723,35.66136289,"35.66136289,139.62506723",東京都世田谷区上北沢一丁目３−１
Japan,060-0016,北五条西三丁目１−７,札幌市中央区,北海道,JP,141.35078326,43.06679797,"43.06679797,141.35078326",北海道札幌市中央区北五条西三丁目１−７
Japan,133-0041,東葛西九丁目２−８,江戸川区,東京都,JP,139.88402337,35.65497352,"35.65497352,139.88402337",東京都江戸川区東葛西九丁目２−８
Japan,111-0042,松が谷二丁目２−９,台東区,東京都,JP,139.78627541,35.71333289,"35.71333289,139.78627541",東京都台東区松が谷二丁目２−９
Japan,470-2355,字迎戸一丁目３−８,知多郡武豊町,愛知県,JP,136.91694049,34.85178302,"34.85178302,136.91694049",愛知県知多郡武豊町字迎戸一丁目３−８
Japan,505-0044,加茂川町一丁目３−３,美濃加茂市,岐阜県,JP,137.00960924,35.44231528,"35.44231528,137.00960924",岐阜県美濃加茂市加茂川町一丁目３−３
Japan,812-0036,大字下臼井二丁目３−６,福岡市博多区,福岡県,JP,130.44455511,33.59924963,"33.59924963,130.44455511",福岡県福岡市博多区大字下臼井二丁目３−６
Japan,146-0082,羽田空港三丁目３−５,大田区,東京都,JP,139.78599568,35.54902942,"35.54902942,139.78599568",東京都大田区羽田空港三丁目３−５
Japan,062-0934,平岸三条十二丁目２−９,札幌市豊平区,北海道,JP,141.36936135,43.02836493,"43.02836493,141.36936135",北海道札幌市豊平区平岸三条十二丁目２−９
Japan,154-0001,玉川三丁目１−７,世田谷区,東京都,JP,139.62563961,35.61418021,"35.61418021,139.62563961",東京都世田谷区玉川三丁目１−７
Japan,487-0012,新開町一丁目１−３,春日井市,愛知県,JP,136.94351711,35.26677145,"35.26677145,136.94351711",愛知県春日井市新開町一丁目１−３
Japan,568-0081,彩都あさぎ七丁目２−８,茨木市,大阪府,JP,135.52576903,34.85723971,"34.85723971,135.52576903",大阪府茨木市彩都あさぎ七丁目２−８
Japan,168-0072,阿佐谷南一丁目２−４,杉並区,東京都,JP,139.63924693,35.70130833,"35.70130833,139.63924693",東京都杉並区阿佐谷南一丁目２−４
Japan,003-0828,菊水元町五条三丁目２−５,札幌市白石区,北海道,JP,141.40720425,43.06793922,"43.06793922,141.40720425",北海道札幌市白石区菊水元町五条三丁目２−５
Japan,177-0035,大泉町三丁目２−６,練馬区,東京都,JP,139.5986909,35.76742609,"35.76742609,139.5986909",東京都練馬区大泉町三丁目２−６
Japan,657-0813,上野通一丁目３−１,神戸市灘区,兵庫県,JP,135.22344199,34.71892621,"34.71892621,135.22344199",兵庫県神戸市灘区上野通一丁目３−１
Japan,904-1105,石川嘉手苅一丁目３−３,うるま市,沖縄県,JP,127.80797285,26.42276857,"26.42276857,127.80797285",沖縄県うるま市石川嘉手苅一丁目３−３
Japan,110-0011,谷中四丁目２−５,台東区,東京都,JP,139.76788513,35.72297621,"35.72297621,139.76788513",東京都台東区谷中四丁目２−５
Japan,243-0815,宮の里三丁目３−７,厚木市,神奈川県,JP,139.31282074,35.48055236,"35.48055236,139.31282074",神奈川県厚木市宮の里三丁目３−７
Japan,812-0891,上呉服町一丁目２−６,福岡市博多区,福岡県,JP,130.41119615,33.5981142,"33.5981142,130.41119615",福岡県福岡市博多区上呉服町一丁目２−６
Japan,210-0015,旭町一丁目２−５,川崎市川崎区,神奈川県,JP,139.71037865,35.53451694,"35.53451694,139.71037865",神奈川県川崎市川崎区旭町一丁目２−５
Japan,300-3255,東光台五丁目２−８,つくば市,茨城県,JP,140.06600032,36.08666132,"36.08666132,140.06600032",茨城県つくば市東光台五丁目２−８
Japan,709-2133,御津宇甘一丁目２−９,岡山市北区,岡山県,JP,133.87218871,34.80371346,"34.80371346,133.87218871",岡山県岡山市北区御津宇甘一丁目２−９
Japan,513-0021,小田町二丁目２−８,鈴鹿市,三重県,JP,136.49630148,34.87237035,"34.87237035,136.49630148",三重県鈴鹿市小田町二丁目２−８
Japan,513-0836,北若松町一丁目３−５,鈴鹿市,三重県,JP,136.61995898,34.87393432,"34.87393432,136.61995898",三重県鈴鹿市北若松町一丁目３−５
Japan,372-0824,三和町一丁目３−８,伊勢崎市,群馬県,JP,139.22198877,36.35031944,"36.35031944,139.22198877",群馬県伊勢崎市三和町一丁目３−８
Japan,277-0002,箕輪一丁目３−２,柏市,千葉県,JP,140.02467874,35.85237496,"35.85237496,140.02467874",千葉県柏市箕輪一丁目３−２
Japan,251-0024,片瀬一丁目３−２,藤沢市,神奈川県,JP,139.48960445,35.32824133,"35.32824133,139.48960445",神奈川県藤沢市片瀬一丁目３−２
Japan,816-0964,瑞穂町四丁目３−６,大野城市,福岡県,JP,130.47830928,33.53211883,"33.53211883,130.47830928",福岡県大野城市瑞穂町四丁目３−６
Japan,810-0075,港二丁目１−８,福岡市中央区,福岡県,JP,130.38075963,33.59323069,"33.59323069,130.38075963",福岡県福岡市中央区港二丁目１−８
Japan,252-0214,上矢部二丁目３−４,相模原市中央区,神奈川県,JP,139.3855863,35.58370737,"35.58370737,139.3855863",神奈川県相模原市中央区上矢部二丁目３−４
Japan,818-0042,美咲一丁目１−６,筑紫野市,福岡県,JP,130.55851684,33.46234637,"33.46234637,130.55851684",福岡県筑紫野市美咲一丁目１−６
Japan,448-0034,神明町七丁目３−９,刈谷市,愛知県,JP,137.00523627,34.99870247,"34.99870247,137.00523627",愛知県刈谷市神明町七丁目３−９
Japan,158-0095,下馬六丁目２−３,世田谷区,東京都,JP,139.67907144,35.63005497,"35.63005497,139.67907144",東京都世田谷区下馬六丁目２−３
Japan,146-0092,京浜島一丁目３−７,大田区,東京都,JP,139.7588745,35.56928094,"35.56928094,139.7588745",東京都大田区京浜島一丁目３−７
Japan,446-0003,小川町二丁目１−５,安城市,愛知県,JP,137.08786301,34.90765557,"34.90765557,137.08786301",愛知県安城市小川町二丁目１−５
Japan,060-0041,大通東一丁目２−６,札幌市中央区,北海道,JP,141.35795352,43.06226692,"43.06226692,141.35795352",北海道札幌市中央区大通東一丁目２−６
Japan,251-0872,立石三丁目１−６,藤沢市,神奈川県,JP,139.48417205,35.36388456,"35.36388456,139.48417205",神奈川県藤沢市立石三丁目１−６
Japan,812-0018,東雲町二丁目１−６,福岡市博多区,福岡県,JP,130.46639721,33.54707975,"33.54707975,130.46639721",福岡県福岡市博多区東雲町二丁目１−６
Japan,343-0033,中島一丁目２−６,越谷市,埼玉県,JP,139.83382946,35.89208098,"35.89208098,139.83382946",埼玉県越谷市中島一丁目２−６
Japan,444-0211,福桶町二丁目３−５,岡崎市,愛知県,JP,137.11645947,34.89716023,"34.89716023,137.11645947",愛知県岡崎市福桶町二丁目３−５
Japan,176-0003,関町東一丁目３−９,練馬区,東京都,JP,139.58416423,35.725167,"35.725167,139.58416423",東京都練馬区関町東一丁目３−９
Japan,444-0503,南旭町二丁目２−３,西尾市,愛知県,JP,137.05493372,34.86679205,"34.86679205,137.05493372",愛知県西尾市南旭町二丁目２−３
Japan,270-1327,内野三丁目３−３,印西市,千葉県,JP,140.12396386,35.7903959,"35.7903959,140.12396386",千葉県印西市内野三丁目３−３
Japan,447-0001,北町三丁目２−７,碧南市,愛知県,JP,137.03165716,34.93440249,"34.93440249,137.03165716",愛知県碧南市北町三丁目２−７
Japan,983-0034,福田町南二丁目２−６,仙台市宮城野区,宮城県,JP,140.96355003,38.25931686,"38.25931686,140.96355003",宮城県仙台市宮城野区福田町南二丁目２−６
Japan,452-0961,西枇杷島町下新一丁目１−３,清須市,愛知県,JP,136.8710531,35.2000102,"35.2000102,136.8710531",愛知県清須市西枇杷島町下新一丁目１−３
Japan,445-0053,北旭町一丁目２−７,西尾市,愛知県,JP,137.05554825,34.86623725,"34.86623725,137.05554825",愛知県西尾市北旭町一丁目２−７
Japan,338-0001,八王子三丁目３−４,さいたま市中央区,埼玉県,JP,139.61120841,35.88082549,"35.88082549,139.61120841",埼玉県さいたま市中央区八王子三丁目３−４
Japan,813-0025,青葉七丁目２−７,福岡市東区,福岡県,JP,130.46765706,33.63799547,"33.63799547,130.46765706",福岡県福岡市東区青葉七丁目２−７
Japan,664-0847,行基町一丁目２−３,伊丹市,兵庫県,JP,135.40875121,34.78201614,"34.78201614,135.40875121",兵庫県伊丹市行基町一丁目２−３
Japan,813-0025,青葉三丁目１−６,福岡市東区,福岡県,JP,130.46277212,33.64426148,"33.64426148,130.46277212",福岡県福岡市東区青葉三丁目１−６
Japan,064-0913,南二十五条西十丁目２−１,札幌市中央区,北海道,JP,141.34617949,43.0254939,"43.0254939,141.34617949",北海道札幌市中央区南二十五条西十丁目２−１
Japan,813-0002,香椎照葉七丁目２−８,福岡市東区,福岡県,JP,130.41749079,33.67433382,"33.67433382,130.41749079",福岡県福岡市東区香椎照葉七丁目２−８
Japan,134-0085,東小松川二丁目１−５,江戸川区,東京都,JP,139.86637069,35.69610565,"35.69610565,139.86637069",東京都江戸川区東小松川二丁目１−５
Japan,273-0003,南本町二丁目１−５,船橋市,千葉県,JP,139.97899057,35.69553806,"35.69553806,139.97899057",千葉県船橋市南本町二丁目１−５
Japan,920-0375,戸水町一丁目１−４,金沢市,石川県,JP,136.62100636,36.60856692,"36.60856692,136.62100636",石川県金沢市戸水町一丁目１−４
Japan,861-4173,南高江町二丁目２−３,熊本市南区,熊本県,JP,130.69352297,32.74928138,"32.74928138,130.69352297",熊本県熊本市南区南高江町二丁目２−３
Japan,442-0817,東曙町一丁目２−４,豊川市,愛知県,JP,137.3984232,34.83464213,"34.83464213,137.3984232",愛知県豊川市東曙町一丁目２−４
Japan,485-0065,小木一丁目２−１,小牧市,愛知県,JP,136.90107869,35.28387217,"35.28387217,136.90107869",愛知県小牧市小木一丁目２−１
Japan,475-0086,庚申町二丁目１−６,半田市,愛知県,JP,136.94747627,34.91620504,"34.91620504,136.94747627",愛知県半田市庚申町二丁目１−６
Japan,177-0042,三原台三丁目３−７,練馬区,東京都,JP,139.59989126,35.75405233,"35.75405233,139.59989126",東京都練馬区三原台三丁目３−７
Japan,062-0007,美園三条七丁目１−７,札幌市豊平区,北海道,JP,141.39084805,43.04036366,"43.04036366,141.39084805",北海道札幌市豊平区美園三条七丁目１−７
Japan,176-0005,高松五丁目３−７,練馬区,東京都,JP,139.62014049,35.75813018,"35.75813018,139.62014049",東京都練馬区高松五丁目３−７
Japan,062-0002,美園十条四丁目３−９,札幌市豊平区,北海道,JP,141.37994449,43.03713154,"43.03713154,141.37994449",北海道札幌市豊平区美園十条四丁目３−９
Japan,920-0333,三浦町一丁目２−１,金沢市,石川県,JP,136.63991661,36.59754666,"36.59754666,136.63991661",石川県金沢市三浦町一丁目２−１
Japan,141-0001,二葉三丁目１−２,品川区,東京都,JP,139.72009622,35.60295405,"35.60295405,139.72009622",東京都品川区二葉三丁目１−２
Japan,468-0026,土原四丁目２−８,名古屋市天白区,愛知県,JP,136.98428162,35.11050199,"35.11050199,136.98428162",愛知県名古屋市天白区土原四丁目２−８
Japan,442-0069,新道町一丁目２−８,豊川市,愛知県,JP,137.36311152,34.82432701,"34.82432701,137.36311152",愛知県豊川市新道町一丁目２−８
Japan,062-0905,豊平五条二丁目２−３,札幌市豊平区,北海道,JP,141.36595432,43.05167585,"43.05167585,141.36595432",北海道札幌市豊平区豊平五条二丁目２−３
Japan,144-0053,南馬込二丁目３−６,大田区,東京都,JP,139.71697529,35.59000132,"35.59000132,139.71697529",東京都大田区南馬込二丁目３−６
Japan,700-0076,三野二丁目１−２,岡山市北区,岡山県,JP,133.938259,34.6920886,"34.6920886,133.938259",岡山県岡山市北区三野二丁目１−２
Japan,564-0032,寿町二丁目１−５,吹田市,大阪府,JP,135.52090876,34.75368738,"34.75368738,135.52090876",大阪府吹田市寿町二丁目１−５
Japan,594-1128,肥子町一丁目１−９,和泉市,大阪府,JP,135.42259956,34.48717422,"34.48717422,135.42259956",大阪府和泉市肥子町一丁目１−９
Japan,464-0064,山門町二丁目３−１,名古屋市千種区,愛知県,JP,136.95328663,35.16829192,"35.16829192,136.95328663",愛知県名古屋市千種区山門町二丁目３−１
Japan,064-0919,南二条東六丁目１−７,札幌市中央区,北海道,JP,141.36575752,43.06040909,"43.06040909,141.36575752",北海道札幌市中央区南二条東六丁目１−７
Japan,989-3433,旭ケ丘二丁目１−７,仙台市青葉区,宮城県,JP,140.88649829,38.292473,"38.292473,140.88649829",宮城県仙台市青葉区旭ケ丘二丁目１−７
Japan,533-0022,淡路一丁目３−６,大阪市東淀川区,大阪府,JP,135.50922681,34.73638027,"34.73638027,135.50922681",大阪府大阪市東淀川区淡路一丁目３−６
Japan,270-2323,惣深新田飛地二丁目３−７,印西市,千葉県,JP,140.18384175,35.78450389,"35.78450389,140.18384175",千葉県印西市惣深新田飛地二丁目３−７
Japan,162-0066,四谷一丁目２−２,新宿区,東京都,JP,139.72967858,35.68505006,"35.68505006,139.72967858",東京都新宿区四谷一丁目２−２
Japan,131-0043,横川五丁目３−７,墨田区,東京都,JP,139.81837359,35.70463676,"35.70463676,139.81837359",東京都墨田区横川五丁目３−７
Japan,062-0904,豊平四条三丁目２−９,札幌市豊平区,北海道,JP,141.36973309,43.05247973,"43.05247973,141.36973309",北海道札幌市豊平区豊平四条三丁目２−９
Japan,183-0021,是政四丁目３−５,府中市,東京都,JP,139.4929185,35.65575314,"35.65575314,139.4929185",東京都府中市是政四丁目３−５
Japan,064-0803,南十二条西七丁目２−９,札幌市中央区,北海道,JP,141.34880655,43.04370328,"43.04370328,141.34880655",北海道札幌市中央区南十二条西七丁目２−９
Japan,812-0884,金の隈二丁目１−４,福岡市博多区,福岡県,JP,130.47334751,33.55648839,"33.55648839,130.47334751",福岡県福岡市博多区金の隈二丁目１−４
Japan,900-0032,通堂町二丁目１−７,那覇市,沖縄県,JP,127.66944774,26.21168431,"26.21168431,127.66944774",沖縄県那覇市通堂町二丁目１−７
Japan,320-0852,下田原町二丁目３−５,宇都宮市,栃木県,JP,139.90208539,36.62532435,"36.62532435,139.90208539",栃木県宇都宮市下田原町二丁目３−５
Japan,323-0006,駅南町一丁目３−１,小山市,栃木県,JP,139.80784402,36.30615279,"36.30615279,139.80784402",栃木県小山市駅南町一丁目３−１
Japan,165-0022,鷺宮六丁目３−６,中野区,東京都,JP,139.62864365,35.72471125,"35.72471125,139.62864365",東京都中野区鷺宮六丁目３−６
Japan,305-0066,国松一丁目３−６,つくば市,茨城県,JP,140.07797252,36.21379731,"36.21379731,140.07797252",茨城県つくば市国松一丁目３−６
Japan,273-0022,海神四丁目２−３,船橋市,千葉県,JP,139.97515471,35.70806599,"35.70806599,139.97515471",千葉県船橋市海神四丁目２−３
Japan,140-0002,西品川三丁目３−７,品川区,東京都,JP,139.72595489,35.61632206,"35.61632206,139.72595489",東京都品川区西品川三丁目３−７
Japan,274-0072,南海神二丁目３−８,船橋市,千葉県,JP,139.96310804,35.69819037,"35.69819037,139.96310804",千葉県船橋市南海神二丁目３−８
Japan,251-0056,辻堂新町一丁目１−６,藤沢市,神奈川県,JP,139.45090476,35.33932836,"35.33932836,139.45090476",神奈川県藤沢市辻堂新町一丁目１−６
Japan,251-0051,渡内一丁目１−１,藤沢市,神奈川県,JP,139.50393207,35.34418878,"35.34418878,139.50393207",神奈川県藤沢市渡内一丁目１−１
Japan,273-0005,二和西五丁目２−５,船橋市,千葉県,JP,140.01364467,35.74768136,"35.74768136,140.01364467",千葉県船橋市二和西五丁目２−５
Japan,861-8034,花立二丁目３−３,熊本市東区,熊本県,JP,130.77504674,32.78079423,"32.78079423,130.77504674",熊本県熊本市東区花立二丁目３−３
Japan,564-0018,芝田町一丁目１−４,吹田市,大阪府,JP,135.53844831,34.77557183,"34.77557183,135.53844831",大阪府吹田市芝田町一丁目１−４
Japan,920-1314,みずき三丁目２−７,金沢市,石川県,JP,136.66945692,36.62266381,"36.62266381,136.66945692",石川県金沢市みずき三丁目２−７
Japan,252-0234,相模原一丁目３−２,相模原市中央区,神奈川県,JP,139.36728977,35.58150842,"35.58150842,139.36728977",神奈川県相模原市中央区相模原一丁目３−２
Japan,474-0023,大東町四丁目３−５,大府市,愛知県,JP,136.97657301,35.0049448,"35.0049448,136.97657301",愛知県大府市大東町四丁目３−５
Japan,442-0851,西桜木町一丁目１−５,豊川市,愛知県,JP,137.38719198,34.829937,"34.829937,137.38719198",愛知県豊川市西桜木町一丁目１−５
Japan,861-4202,城南町舞原一丁目１−８,熊本市南区,熊本県,JP,130.74762865,32.70919521,"32.70919521,130.74762865",熊本県熊本市南区城南町舞原一丁目１−８
Japan,466-0806,長戸町六丁目１−４,名古屋市昭和区,愛知県,JP,136.94495009,35.14468313,"35.14468313,136.94495009",愛知県名古屋市昭和区長戸町六丁目１−４
Japan,812-0032,下川端町二丁目２−２,福岡市博多区,福岡県,JP,130.40553125,33.59590829,"33.59590829,130.40553125",福岡県福岡市博多区下川端町二丁目２−２
Japan,513-0026,高岡台二丁目３−１,鈴鹿市,三重県,JP,136.58903711,34.90982768,"34.90982768,136.58903711",三重県鈴鹿市高岡台二丁目３−１
Japan,267-0065,大木戸町一丁目３−７,千葉市緑区,千葉県,JP,140.24531302,35.52097989,"35.52097989,140.24531302",千葉県千葉市緑区大木戸町一丁目３−７
Japan,227-0065,藤が丘一丁目３−９,横浜市青葉区,神奈川県,JP,139.5308774,35.54615794,"35.54615794,139.5308774",神奈川県横浜市青葉区藤が丘一丁目３−９
Japan,060-0016,北五条西十一丁目１−６,札幌市中央区,北海道,JP,141.33952991,43.0664565,"43.0664565,141.33952991",北海道札幌市中央区北五条西十一丁目１−６
Japan,606-8117,一乗寺大原田町二丁目１−８,京都市左京区,京都府,JP,135.78606655,35.04262261,"35.04262261,135.78606655",京都府京都市左京区一乗寺大原田町二丁目１−８
Japan,176-0011,桜台六丁目３−８,練馬区,東京都,JP,139.65847157,35.74694102,"35.74694102,139.65847157",東京都練馬区桜台六丁目３−８
Japan,446-0012,高棚町二丁目１−８,安城市,愛知県,JP,137.02492634,34.94690441,"34.94690441,137.02492634",愛知県安城市高棚町二丁目１−８
Japan,064-0922,南三条東四丁目２−６,札幌市中央区,北海道,JP,141.36284458,43.05935102,"43.05935102,141.36284458",北海道札幌市中央区南三条東四丁目２−６
Japan,441-8043,大国町一丁目２−２,豊橋市,愛知県,JP,137.39002334,34.76013175,"34.76013175,137.39002334",愛知県豊橋市大国町一丁目２−２
Japan,343-0034,伊原二丁目３−６,越谷市,埼玉県,JP,139.80957258,35.86148577,"35.86148577,139.80957258",埼玉県越谷市伊原二丁目３−６
Japan,920-1107,旭町二丁目３−９,金沢市,石川県,JP,136.68341954,36.55431584,"36.55431584,136.68341954",石川県金沢市旭町二丁目３−９
Japan,183-0036,美好町三丁目２−９,府中市,東京都,JP,139.46471227,35.66934018,"35.66934018,139.46471227",東京都府中市美好町三丁目２−９
Japan,003-0022,中央三条六丁目２−１,札幌市白石区,北海道,JP,141.40399039,43.05672152,"43.05672152,141.40399039",北海道札幌市白石区中央三条六丁目２−１
Japan,003-0801,菊水一条一丁目１−５,札幌市白石区,北海道,JP,141.36971603,43.05730016,"43.05730016,141.36971603",北海道札幌市白石区菊水一条一丁目１−５
Japan,064-0824,北十六条西二十丁目１−２,札幌市中央区,北海道,JP,141.32293409,43.07497558,"43.07497558,141.32293409",北海道札幌市中央区北十六条西二十丁目１−２
Japan,201-0014,東野川二丁目３−６,狛江市,東京都,JP,139.57824246,35.64479941,"35.64479941,139.57824246",東京都狛江市東野川二丁目３−６
Japan,983-0005,榴岡二丁目１−５,仙台市宮城野区,宮城県,JP,140.88510446,38.26099371,"38.26099371,140.88510446",宮城県仙台市宮城野区榴岡二丁目１−５
Japan,921-8173,駅西新町一丁目１−９,金沢市,石川県,JP,136.63925655,36.59074333,"36.59074333,136.63925655",石川県金沢市駅西新町一丁目１−９
Japan,480-1151,久保山一丁目２−５,長久手市,愛知県,JP,137.03412008,35.17482766,"35.17482766,137.03412008",愛知県長久手市久保山一丁目２−５
Japan,060-0057,南一条東一丁目１−７,札幌市中央区,北海道,JP,141.35691614,43.05969871,"43.05969871,141.35691614",北海道札幌市中央区南一条東一丁目１−７
Japan,860-0822,山崎町二丁目２−３,熊本市中央区,熊本県,JP,130.70280601,32.79589678,"32.79589678,130.70280601",熊本県熊本市中央区山崎町二丁目２−３
Japan,448-0034,神明町三丁目２−９,刈谷市,愛知県,JP,137.00397989,34.99548126,"34.99548126,137.00397989",愛知県刈谷市神明町三丁目２−９
Japan,154-0023,上祖師谷五丁目２−７,世田谷区,東京都,JP,139.59350078,35.65751951,"35.65751951,139.59350078",東京都世田谷区上祖師谷五丁目２−７
Japan,920-0174,湊一丁目３−３,金沢市,石川県,JP,136.66007699,36.64448879,"36.64448879,136.66007699",石川県金沢市湊一丁目３−３
Japan,141-0021,東八潮二丁目２−４,品川区,東京都,JP,139.77057602,35.62177815,"35.62177815,139.77057602",東京都品川区東八潮二丁目２−４
Japan,556-0013,日本橋東三丁目１−３,大阪市浪速区,大阪府,JP,135.50804646,34.65664518,"34.65664518,135.50804646",大阪府大阪市浪速区日本橋東三丁目１−３
Japan,731-0137,東原三丁目２−６,広島市安佐南区,広島県,JP,132.47971256,34.44608723,"34.44608723,132.47971256",広島県広島市安佐南区東原三丁目２−６
Japan,468-0011,平針四丁目３−２,名古屋市天白区,愛知県,JP,137.00491302,35.12151822,"35.12151822,137.00491302",愛知県名古屋市天白区平針四丁目３−２
Japan,602-8428,九軒町一丁目３−３,京都市上京区,京都府,JP,135.76829843,35.02524054,"35.02524054,135.76829843",京都府京都市上京区九軒町一丁目３−３
Japan,162-0063,大京町一丁目１−６,新宿区,東京都,JP,139.71687333,35.68468113,"35.68468113,139.71687333",東京都新宿区大京町一丁目１−６
Japan,920-1107,旭町二丁目１−９,金沢市,石川県,JP,136.68313693,36.55506419,"36.55506419,136.68313693",石川県金沢市旭町二丁目１−９
Japan,142-0064,小山五丁目１−９,品川区,東京都,JP,139.70091746,35.61611871,"35.61611871,139.70091746",東京都品川区小山五丁目１−９
Japan,064-0925,南五条西五丁目１−９,札幌市中央区,北海道,JP,141.35161241,43.05382069,"43.05382069,141.35161241",北海道札幌市中央区南五条西五丁目１−９
Japan,486-0911,追進町一丁目３−７,春日井市,愛知県,JP,136.94294724,35.22434645,"35.22434645,136.94294724",愛知県春日井市追進町一丁目３−７
Japan,664-0847,行基町四丁目３−５,伊丹市,兵庫県,JP,135.40949378,34.77744038,"34.77744038,135.40949378",兵庫県伊丹市行基町四丁目３−５
Japan,273-0867,中野木二丁目１−９,船橋市,千葉県,JP,140.01847149,35.70137168,"35.70137168,140.01847149",千葉県船橋市中野木二丁目１−９
Japan,062-0033,西岡二条八丁目３−１,札幌市豊平区,北海道,JP,141.38087782,43.00761225,"43.00761225,141.38087782",北海道札幌市豊平区西岡二条八丁目３−１
Japan,224-0036,勝田南二丁目１−９,横浜市都筑区,神奈川県,JP,139.58813623,35.54078852,"35.54078852,139.58813623",神奈川県横浜市都筑区勝田南二丁目１−９
Japan,279-0003,海楽一丁目１−３,浦安市,千葉県,JP,139.90489867,35.6542199,"35.6542199,139.90489867",千葉県浦安市海楽一丁目１−３
Japan,270-2322,滝野二丁目２−６,印西市,千葉県,JP,140.17972679,35.8086847,"35.8086847,140.17972679",千葉県印西市滝野二丁目２−６
Japan,277-0806,若柴一丁目２−５,柏市,千葉県,JP,139.95436449,35.89251177,"35.89251177,139.95436449",千葉県柏市若柴一丁目２−５
Japan,132-0023,一之江四丁目３−１,江戸川区,東京都,JP,139.88192558,35.68941264,"35.68941264,139.88192558",東京都江戸川区一之江四丁目３−１
Japan,062-0905,豊平五条三丁目３−２,札幌市豊平区,北海道,JP,141.36773265,43.05065668,"43.05065668,141.36773265",北海道札幌市豊平区豊平五条三丁目３−２
Japan,320-0004,中今泉三丁目１−３,宇都宮市,栃木県,JP,139.90769898,36.56821901,"36.56821901,139.90769898",栃木県宇都宮市中今泉三丁目１−３
Japan,731-3163,高取南三丁目１−２,広島市安佐南区,広島県,JP,132.42955358,34.46731014,"34.46731014,132.42955358",広島県広島市安佐南区高取南三丁目１−２
Japan,520-3044,安養寺一丁目３−５,栗東市,滋賀県,JP,135.9989842,35.02323818,"35.02323818,135.9989842",滋賀県栗東市安養寺一丁目３−５
Japan,321-0138,兵庫塚三丁目３−１,宇都宮市,栃木県,JP,139.85796639,36.49717855,"36.49717855,139.85796639",栃木県宇都宮市兵庫塚三丁目３−１
Japan,332-0024,三ツ和二丁目２−３,川口市,埼玉県,JP,139.74345976,35.82456773,"35.82456773,139.74345976",埼玉県川口市三ツ和二丁目２−３
Japan,060-0016,北五条西十八丁目２−３,札幌市中央区,北海道,JP,141.32724934,43.06326029,"43.06326029,141.32724934",北海道札幌市中央区北五条西十八丁目２−３
Japan,183-0006,晴見町三丁目１−３,府中市,東京都,JP,139.47763492,35.68352779,"35.68352779,139.47763492",東京都府中市晴見町三丁目１−３
Japan,525-0042,矢倉二丁目３−２,草津市,滋賀県,JP,135.95236981,35.00642605,"35.00642605,135.95236981",滋賀県草津市矢倉二丁目３−２
Japan,220-0053,浅間町一丁目２−６,横浜市西区,神奈川県,JP,139.61190489,35.46528681,"35.46528681,139.61190489",神奈川県横浜市西区浅間町一丁目２−６
Japan,701-1464,下足守二丁目３−１,岡山市北区,岡山県,JP,133.81365947,34.72094655,"34.72094655,133.81365947",岡山県岡山市北区下足守二丁目３−１
Japan,444-0064,竜美新町一丁目３−８,岡崎市,愛知県,JP,137.18379256,34.93634199,"34.93634199,137.18379256",愛知県岡崎市竜美新町一丁目３−８
Japan,464-0815,幸川町三丁目３−４,名古屋市千種区,愛知県,JP,136.96377422,35.15805841,"35.15805841,136.96377422",愛知県名古屋市千種区幸川町三丁目３−４
Japan,175-0081,三園一丁目３−７,板橋区,東京都,JP,139.64105912,35.79012542,"35.79012542,139.64105912",東京都板橋区三園一丁目３−７
Japan,447-0048,札木町二丁目３−８,碧南市,愛知県,JP,137.01336556,34.91183399,"34.91183399,137.01336556",愛知県碧南市札木町二丁目３−８
Japan,464-0804,東山通三丁目１−９,名古屋市千種区,愛知県,JP,136.96979082,35.16091346,"35.16091346,136.96979082",愛知県名古屋市千種区東山通三丁目１−９
Japan,260-0024,中央港一丁目２−５,千葉市中央区,千葉県,JP,140.09966604,35.60024524,"35.60024524,140.09966604",千葉県千葉市中央区中央港一丁目２−５
Japan,286-0014,久米野一丁目１−４,成田市,千葉県,JP,140.34811275,35.76771142,"35.76771142,140.34811275",千葉県成田市久米野一丁目１−４
Japan,273-0023,三咲一丁目２−７,船橋市,千葉県,JP,140.02862569,35.74358115,"35.74358115,140.02862569",千葉県船橋市三咲一丁目２−７
Japan,160-0018,二十騎町二丁目２−７,新宿区,東京都,JP,139.7302023,35.69780813,"35.69780813,139.7302023",東京都新宿区二十騎町二丁目２−７
Japan,601-8352,吉祥院西浦町二丁目２−８,京都市南区,京都府,JP,135.7298066,34.97411724,"34.97411724,135.7298066",京都府京都市南区吉祥院西浦町二丁目２−８
Japan,154-0023,上祖師谷一丁目１−９,世田谷区,東京都,JP,139.59976298,35.66238319,"35.66238319,139.59976298",東京都世田谷区上祖師谷一丁目１−９
Japan,920-3135,百坂町一丁目１−３,金沢市,石川県,JP,136.68681102,36.60840682,"36.60840682,136.68681102",石川県金沢市百坂町一丁目１−３
Japan,463-0094,大字牛牧一丁目２−４,名古屋市守山区,愛知県,JP,136.98819069,35.21751395,"35.21751395,136.98819069",愛知県名古屋市守山区大字牛牧一丁目２−４
Japan,920-0988,川岸町一丁目２−１,金沢市,石川県,JP,136.65570911,36.55423575,"36.55423575,136.65570911",石川県金沢市川岸町一丁目２−１
Japan,657-0104,岩屋北町三丁目３−８,神戸市灘区,兵庫県,JP,135.21907146,34.70550792,"34.70550792,135.21907146",兵庫県神戸市灘区岩屋北町三丁目３−８
Japan,321-0104,千波町一丁目１−９,宇都宮市,栃木県,JP,139.8920397,36.56204344,"36.56204344,139.8920397",栃木県宇都宮市千波町一丁目１−９
Japan,920-3111,畝田西四丁目１−６,金沢市,石川県,JP,136.60649502,36.59977969,"36.59977969,136.60649502",石川県金沢市畝田西四丁目１−６
Japan,140-0003,東五反田三丁目１−１,品川区,東京都,JP,139.72853624,35.62864638,"35.62864638,139.72853624",東京都品川区東五反田三丁目１−１
Japan,252-0222,南橋本一丁目１−２,相模原市中央区,神奈川県,JP,139.35397835,35.58051223,"35.58051223,139.35397835",神奈川県相模原市中央区南橋本一丁目１−２
Japan,221-0071,浦島町一丁目３−４,横浜市神奈川区,神奈川県,JP,139.64218889,35.48233271,"35.48233271,139.64218889",神奈川県横浜市神奈川区浦島町一丁目３−４
Japan,452-0806,香呑町六丁目３−３,名古屋市西区,愛知県,JP,136.89299649,35.20273785,"35.20273785,136.89299649",愛知県名古屋市西区香呑町六丁目３−３
Japan,920-3133,南四十万二丁目３−４,金沢市,石川県,JP,136.61610152,36.49662882,"36.49662882,136.61610152",石川県金沢市南四十万二丁目３−４
Japan,157-0065,南烏山一丁目３−１,世田谷区,東京都,JP,139.61051384,35.66842671,"35.66842671,139.61051384",東京都世田谷区南烏山一丁目３−１
Japan,064-0958,南九条西十一丁目３−８,札幌市中央区,北海道,JP,141.34259448,43.04762591,"43.04762591,141.34259448",北海道札幌市中央区南九条西十一丁目３−８
Japan,166-0016,高円寺北一丁目２−８,杉並区,東京都,JP,139.65631728,35.70640306,"35.70640306,139.65631728",東京都杉並区高円寺北一丁目２−８
Japan,321-0158,西川田本町二丁目３−９,宇都宮市,栃木県,JP,139.84730857,36.51529006,"36.51529006,139.84730857",栃木県宇都宮市西川田本町二丁目３−９
Japan,105-6242,西新橋一丁目２−３,港区,東京都,JP,139.75370184,35.66884092,"35.66884092,139.75370184",東京都港区西新橋一丁目２−３
Japan,305-0077,筑波一丁目３−４,つくば市,茨城県,JP,140.10054988,36.21833,"36.21833,140.10054988",茨城県つくば市筑波一丁目３−４
Japan,064-0954,宮の森一条十五丁目１−６,札幌市中央区,北海道,JP,141.29742413,43.04872385,"43.04872385,141.29742413",北海道札幌市中央区宮の森一条十五丁目１−６
Japan,486-0961,押沢台六丁目１−６,春日井市,愛知県,JP,137.0657967,35.28276755,"35.28276755,137.0657967",愛知県春日井市押沢台六丁目１−６
Japan,441-0202,赤坂町二丁目３−９,豊川市,愛知県,JP,137.30519284,34.85802782,"34.85802782,137.30519284",愛知県豊川市赤坂町二丁目３−９
Japan,174-0073,徳丸四丁目３−４,板橋区,東京都,JP,139.65307313,35.77286223,"35.77286223,139.65307313",東京都板橋区徳丸四丁目３−４
Japan,532-0028,塚本一丁目２−８,大阪市淀川区,大阪府,JP,135.47397693,34.70996659,"34.70996659,135.47397693",大阪府大阪市淀川区塚本一丁目２−８
Japan,320-0851,中央二丁目１−９,宇都宮市,栃木県,JP,139.88251044,36.55576375,"36.55576375,139.88251044",栃木県宇都宮市中央二丁目１−９
Japan,300-2656,山中二丁目３−４,つくば市,茨城県,JP,140.08348182,36.06324147,"36.06324147,140.08348182",茨城県つくば市山中二丁目３−４
Japan,333-0841,大字東内野一丁目１−７,川口市,埼玉県,JP,139.72188338,35.86779337,"35.86779337,139.72188338",埼玉県川口市大字東内野一丁目１−７
Japan,276-0025,勝田台北二丁目２−９,八千代市,千葉県,JP,140.12252805,35.71850708,"35.71850708,140.12252805",千葉県八千代市勝田台北二丁目２−９
Japan,132-0023,一之江三丁目１−８,江戸川区,東京都,JP,139.88360806,35.68951831,"35.68951831,139.88360806",東京都江戸川区一之江三丁目１−８
Japan,274-0817,高根台三丁目１−１,船橋市,千葉県,JP,140.03867719,35.73307096,"35.73307096,140.03867719",千葉県船橋市高根台三丁目１−１
Japan,816-0861,大谷一丁目３−７,春日市,福岡県,JP,130.45414147,33.53008829,"33.53008829,130.45414147",福岡県春日市大谷一丁目３−７
Japan,132-0013,臨海町一丁目２−５,江戸川区,東京都,JP,139.85341068,35.65169874,"35.65169874,139.85341068",東京都江戸川区臨海町一丁目２−５
Japan,474-0025,中央町二丁目３−２,大府市,愛知県,JP,136.9616661,35.01173773,"35.01173773,136.9616661",愛知県大府市中央町二丁目３−２
Japan,105-6242,西新橋二丁目１−６,港区,東京都,JP,139.75134045,35.66525167,"35.66525167,139.75134045",東京都港区西新橋二丁目１−６
Japan,444-0876,冨尾町一丁目２−５,岡崎市,愛知県,JP,137.32212143,35.00956612,"35.00956612,137.32212143",愛知県岡崎市冨尾町一丁目２−５
Japan,062-0905,豊平五条十丁目３−２,札幌市豊平区,北海道,JP,141.3752149,43.04567984,"43.04567984,141.3752149",北海道札幌市豊平区豊平五条十丁目３−２
Japan,252-0815,片瀬山四丁目３−７,藤沢市,神奈川県,JP,139.49338957,35.32024296,"35.32024296,139.49338957",神奈川県藤沢市片瀬山四丁目３−７
Japan,321-0166,今宮一丁目１−３,宇都宮市,栃木県,JP,139.86607389,36.52010038,"36.52010038,139.86607389",栃木県宇都宮市今宮一丁目１−３
Japan,320-0002,河原町二丁目３−９,宇都宮市,栃木県,JP,139.88371038,36.54961042,"36.54961042,139.88371038",栃木県宇都宮市河原町二丁目３−９
Japan,510-0242,庄野東二丁目１−９,鈴鹿市,三重県,JP,136.52900043,34.87758395,"34.87758395,136.52900043",三重県鈴鹿市庄野東二丁目１−９
Japan,454-0041,宮脇町二丁目１−９,名古屋市中川区,愛知県,JP,136.86727341,35.13460434,"35.13460434,136.86727341",愛知県名古屋市中川区宮脇町二丁目１−９
Japan,107-0062,元麻布二丁目２−７,港区,東京都,JP,139.72862181,35.65449447,"35.65449447,139.72862181",東京都港区元麻布二丁目２−７
Japan,130-0003,堤通二丁目１−２,墨田区,東京都,JP,139.81367637,35.73398646,"35.73398646,139.81367637",東京都墨田区堤通二丁目１−２
Japan,701-1337,横尾一丁目３−３,岡山市北区,岡山県,JP,133.82951788,34.72654688,"34.72654688,133.82951788",岡山県岡山市北区横尾一丁目３−３
Japan,860-0851,国府四丁目２−８,熊本市中央区,熊本県,JP,130.72715187,32.78532139,"32.78532139,130.72715187",熊本県熊本市中央区国府四丁目２−８
Japan,177-0035,大泉町六丁目３−６,練馬区,東京都,JP,139.59438189,35.75617749,"35.75617749,139.59438189",東京都練馬区大泉町六丁目３−６
Japan,003-0005,南郷通十二丁目北一丁目３−６,札幌市白石区,北海道,JP,141.41945837,43.03749253,"43.03749253,141.41945837",北海道札幌市白石区南郷通十二丁目北一丁目３−６
Japan,465-0043,高社一丁目３−８,名古屋市名東区,愛知県,JP,136.99376471,35.16900361,"35.16900361,136.99376471",愛知県名古屋市名東区高社一丁目３−８
Japan,277-0857,豊四季台三丁目２−４,柏市,千葉県,JP,139.9596878,35.86322905,"35.86322905,139.9596878",千葉県柏市豊四季台三丁目２−４
Japan,323-0819,扶桑二丁目１−６,小山市,栃木県,JP,139.81758249,36.35704309,"36.35704309,139.81758249",栃木県小山市扶桑二丁目１−６
Japan,166-0011,上荻四丁目１−２,杉並区,東京都,JP,139.60436646,35.71106536,"35.71106536,139.60436646",東京都杉並区上荻四丁目１−２
Japan,920-0201,神田二丁目１−１,金沢市,石川県,JP,136.6329051,36.55899097,"36.55899097,136.6329051",石川県金沢市神田二丁目１−１
Japan,458-0808,鳴子町四丁目１−６,名古屋市緑区,愛知県,JP,136.96934614,35.09751079,"35.09751079,136.96934614",愛知県名古屋市緑区鳴子町四丁目１−６
Japan,173-0016,前野町六丁目３−１,板橋区,東京都,JP,139.68532051,35.76617078,"35.76617078,139.68532051",東京都板橋区前野町六丁目３−１
Japan,920-0056,泉野町三丁目２−４,金沢市,石川県,JP,136.64999893,36.54856795,"36.54856795,136.64999893",石川県金沢市泉野町三丁目２−４
Japan,700-0914,鹿田町一丁目１−８,岡山市北区,岡山県,JP,133.91933066,34.6547828,"34.6547828,133.91933066",岡山県岡山市北区鹿田町一丁目１−８
Japan,064-0804,南十四条西九丁目３−９,札幌市中央区,北海道,JP,141.34617524,43.04085411,"43.04085411,141.34617524",北海道札幌市中央区南十四条西九丁目３−９
Japan,003-0861,川下一条八丁目１−１,札幌市白石区,北海道,JP,141.4525431,43.04433841,"43.04433841,141.4525431",北海道札幌市白石区川下一条八丁目１−１
Japan,921-8022,戸水二丁目３−８,金沢市,石川県,JP,136.61819134,36.6027946,"36.6027946,136.61819134",石川県金沢市戸水二丁目３−８
Japan,565-0844,桃山台五丁目３−９,吹田市,大阪府,JP,135.49507661,34.78871768,"34.78871768,135.49507661",大阪府吹田市桃山台五丁目３−９
Japan,733-0851,高須四丁目３−８,広島市西区,広島県,JP,132.4160149,34.39530448,"34.39530448,132.4160149",広島県広島市西区高須四丁目３−８
Japan,157-0063,大蔵一丁目３−７,世田谷区,東京都,JP,139.61859921,35.63343737,"35.63343737,139.61859921",東京都世田谷区大蔵一丁目３−７
Japan,168-0071,阿佐谷北一丁目１−１,杉並区,東京都,JP,139.63717962,35.70744578,"35.70744578,139.63717962",東京都杉並区阿佐谷北一丁目１−１
Japan,441-8113,西幸町二丁目３−１,豊橋市,愛知県,JP,137.41350728,34.72888328,"34.72888328,137.41350728",愛知県豊橋市西幸町二丁目３−１
Japan,321-0344,竹林町一丁目３−７,宇都宮市,栃木県,JP,139.90355369,36.5786186,"36.5786186,139.90355369",栃木県宇都宮市竹林町一丁目３−７
Japan,447-0021,西浜町六丁目２−２,碧南市,愛知県,JP,136.97655112,34.86573428,"34.86573428,136.97655112",愛知県碧南市西浜町六丁目２−２
Japan,454-0982,西日置一丁目２−１,名古屋市中川区,愛知県,JP,136.89021354,35.15667755,"35.15667755,136.89021354",愛知県名古屋市中川区西日置一丁目２−１
Japan,602-8496,東立売町一丁目２−４,京都市上京区,京都府,JP,135.75802863,35.01910639,"35.01910639,135.75802863",京都府京都市上京区東立売町一丁目２−４
Japan,277-0874,若白毛一丁目２−６,柏市,千葉県,JP,140.02460933,35.83625641,"35.83625641,140.02460933",千葉県柏市若白毛一丁目２−６
Japan,150-0044,笹塚三丁目２−４,渋谷区,東京都,JP,139.66791058,35.6778787,"35.6778787,139.66791058",東京都渋谷区笹塚三丁目２−４
Japan,166-0001,永福二丁目２−２,杉並区,東京都,JP,139.64015559,35.67314212,"35.67314212,139.64015559",東京都杉並区永福二丁目２−２
Japan,145-0071,東六郷二丁目１−１,大田区,東京都,JP,139.71695606,35.54875464,"35.54875464,139.71695606",東京都大田区東六郷二丁目１−１
Japan,143-0011,東海四丁目３−９,大田区,東京都,JP,139.76491384,35.58945083,"35.58945083,139.76491384",東京都大田区東海四丁目３−９
Japan,180-0001,吉祥寺南町四丁目２−８,武蔵野市,東京都,JP,139.59041273,35.69945759,"35.69945759,139.59041273",東京都武蔵野市吉祥寺南町四丁目２−８
Japan,619-0222,州見台七丁目２−９,木津川市,京都府,JP,135.8186847,34.71447528,"34.71447528,135.8186847",京都府木津川市州見台七丁目２−９
Japan,243-0039,岡津古久二丁目３−２,厚木市,神奈川県,JP,139.31429553,35.42699068,"35.42699068,139.31429553",神奈川県厚木市岡津古久二丁目３−２
Japan,594-1144,あゆみ野四丁目３−２,和泉市,大阪府,JP,135.4484108,34.43523492,"34.43523492,135.4484108",大阪府和泉市あゆみ野四丁目３−２
Japan,224-0015,南山田一丁目１−１,横浜市都筑区,神奈川県,JP,139.58592376,35.5573702,"35.5573702,139.58592376",神奈川県横浜市都筑区南山田一丁目１−１
Japan,210-0848,大島三丁目３−９,川崎市川崎区,神奈川県,JP,139.71847522,35.51998173,"35.51998173,139.71847522",神奈川県川崎市川崎区大島三丁目３−９
Japan,064-0923,南四条西十三丁目１−２,札幌市中央区,北海道,JP,141.33775454,43.05347793,"43.05347793,141.33775454",北海道札幌市中央区南四条西十三丁目１−２
Japan,920-0941,朝日牧町二丁目３−６,金沢市,石川県,JP,136.75884884,36.61545632,"36.61545632,136.75884884",石川県金沢市朝日牧町二丁目３−６
Japan,210-0851,藤崎一丁目１−１,川崎市川崎区,神奈川県,JP,139.72157985,35.52960593,"35.52960593,139.72157985",神奈川県川崎市川崎区藤崎一丁目１−１
Japan,329-0414,小金井二丁目１−８,下野市,栃木県,JP,139.84390539,36.39206799,"36.39206799,139.84390539",栃木県下野市小金井二丁目１−８
Japan,320-0004,中今泉三丁目２−４,宇都宮市,栃木県,JP,139.90745081,36.56992071,"36.56992071,139.90745081",栃木県宇都宮市中今泉三丁目２−４
Japan,273-0023,三咲三丁目１−１,船橋市,千葉県,JP,140.03260521,35.75215375,"35.75215375,140.03260521",千葉県船橋市三咲三丁目１−１
Japan,135-0052,枝川二丁目３−８,江東区,東京都,JP,139.80691101,35.65801583,"35.65801583,139.80691101",東京都江東区枝川二丁目３−８
Japan,062-0005,美園一条六丁目２−９,札幌市豊平区,北海道,JP,141.39137383,43.04255589,"43.04255589,141.39137383",北海道札幌市豊平区美園一条六丁目２−９
Japan,815-0063,弥永五丁目２−９,福岡市南区,福岡県,JP,130.43555583,33.52442012,"33.52442012,130.43555583",福岡県福岡市南区弥永五丁目２−９
Japan,166-0013,西荻南三丁目３−３,杉並区,東京都,JP,139.60183084,35.70230274,"35.70230274,139.60183084",東京都杉並区西荻南三丁目３−３
Japan,145-0061,平和島三丁目２−１,大田区,東京都,JP,139.74808138,35.58285849,"35.58285849,139.74808138",東京都大田区平和島三丁目２−１
Japan,731-0136,伴西一丁目１−３,広島市安佐南区,広島県,JP,132.38840942,34.46880809,"34.46880809,132.38840942",広島県広島市安佐南区伴西一丁目１−３
Japan,160-0018,二十騎町二丁目１−２,新宿区,東京都,JP,139.73074191,35.69835039,"35.69835039,139.73074191",東京都新宿区二十騎町二丁目１−２
Japan,454-0865,掛入町二丁目２−６,名古屋市中川区,愛知県,JP,136.86222706,35.12710503,"35.12710503,136.86222706",愛知県名古屋市中川区掛入町二丁目２−６
Japan,064-0922,南三条東四丁目３−２,札幌市中央区,北海道,JP,141.3618731,43.05958104,"43.05958104,141.3618731",北海道札幌市中央区南三条東四丁目３−２
Japan,321-0952,泉が丘二丁目３−１,宇都宮市,栃木県,JP,139.91962467,36.56216337,"36.56216337,139.91962467",栃木県宇都宮市泉が丘二丁目３−１
Japan,320-0865,御幸本町一丁目１−６,宇都宮市,栃木県,JP,139.92597066,36.58070035,"36.58070035,139.92597066",栃木県宇都宮市御幸本町一丁目１−６
Japan,170-0011,北大塚一丁目３−８,豊島区,東京都,JP,139.7315224,35.73332526,"35.73332526,139.7315224",東京都豊島区北大塚一丁目３−８
Japan,343-0031,千間台東四丁目２−１,越谷市,埼玉県,JP,139.77858778,35.93104661,"35.93104661,139.77858778",埼玉県越谷市千間台東四丁目２−１
Japan,533-0031,上新庄二丁目１−６,大阪市東淀川区,大阪府,JP,135.52998633,34.74896876,"34.74896876,135.52998633",大阪府大阪市東淀川区上新庄二丁目１−６
Japan,156-0043,砧二丁目３−９,世田谷区,東京都,JP,139.6168837,35.64216192,"35.64216192,139.6168837",東京都世田谷区砧二丁目３−９
Japan,133-0041,東葛西七丁目２−４,江戸川区,東京都,JP,139.87800878,35.65836773,"35.65836773,139.87800878",東京都江戸川区東葛西七丁目２−４
Japan,343-0044,東柳田町一丁目３−６,越谷市,埼玉県,JP,139.78703709,35.8840254,"35.8840254,139.78703709",埼玉県越谷市東柳田町一丁目３−６
Japan,156-0056,羽根木一丁目２−３,世田谷区,東京都,JP,139.65882239,35.66603107,"35.66603107,139.65882239",東京都世田谷区羽根木一丁目２−３
Japan,143-0027,蒲田二丁目２−２,大田区,東京都,JP,139.72634244,35.56734503,"35.56734503,139.72634244",東京都大田区蒲田二丁目２−２
Japan,141-6030,東品川五丁目２−７,品川区,東京都,JP,139.75569664,35.6216621,"35.6216621,139.75569664",東京都品川区東品川五丁目２−７
Japan,733-0852,商工センター五丁目３−１,広島市西区,広島県,JP,132.38995888,34.36592628,"34.36592628,132.38995888",広島県広島市西区商工センター五丁目３−１
Japan,134-0088,鹿骨二丁目２−９,江戸川区,東京都,JP,139.89373969,35.70788246,"35.70788246,139.89373969",東京都江戸川区鹿骨二丁目２−９
Japan,321-0155,西川田南一丁目１−５,宇都宮市,栃木県,JP,139.84788821,36.50892777,"36.50892777,139.84788821",栃木県宇都宮市西川田南一丁目１−５
Japan,486-0837,長塚町一丁目１−８,春日井市,愛知県,JP,136.95151103,35.219252,"35.219252,136.95151103",愛知県春日井市長塚町一丁目１−８
Japan,112-0004,後楽二丁目１−３,文京区,東京都,JP,139.74533297,35.7054177,"35.7054177,139.74533297",東京都文京区後楽二丁目１−３
Japan,106-0041,芝四丁目３−６,港区,東京都,JP,139.75056791,35.64785084,"35.64785084,139.75056791",東京都港区芝四丁目３−６
Japan,813-0025,青葉四丁目２−１,福岡市東区,福岡県,JP,130.46186547,33.649832,"33.649832,130.46186547",福岡県福岡市東区青葉四丁目２−１
Japan,591-8034,北花田町一丁一丁目２−１,堺市北区,大阪府,JP,135.51660597,34.58068056,"34.58068056,135.51660597",大阪府堺市北区北花田町一丁一丁目２−１
Japan,981-0951,青葉町二丁目１−９,仙台市青葉区,宮城県,JP,140.86516652,38.28236634,"38.28236634,140.86516652",宮城県仙台市青葉区青葉町二丁目１−９
Japan,144-0031,中央六丁目１−１,大田区,東京都,JP,139.71172274,35.57854655,"35.57854655,139.71172274",東京都大田区中央六丁目１−１
Japan,920-1336,常盤町一丁目２−７,金沢市,石川県,JP,136.67354452,36.56714382,"36.56714382,136.67354452",石川県金沢市常盤町一丁目２−７
Japan,452-0961,春日上高畑一丁目２−２,清須市,愛知県,JP,136.83291387,35.24591682,"35.24591682,136.83291387",愛知県清須市春日上高畑一丁目２−２
Japan,447-0883,照光町一丁目２−９,碧南市,愛知県,JP,137.01758435,34.88721064,"34.88721064,137.01758435",愛知県碧南市照光町一丁目２−９
Japan,300-1240,池の台二丁目３−８,つくば市,茨城県,JP,140.12219816,36.01770963,"36.01770963,140.12219816",茨城県つくば市池の台二丁目３−８
Japan,177-0052,豊玉南二丁目１−５,練馬区,東京都,JP,139.65673854,35.72811535,"35.72811535,139.65673854",東京都練馬区豊玉南二丁目１−５
Japan,920-0919,弥生一丁目３−３,金沢市,石川県,JP,136.64667973,36.54858844,"36.54858844,136.64667973",石川県金沢市弥生一丁目３−３
Japan,567-0806,彩都やまぶき四丁目３−３,茨木市,大阪府,JP,135.52167672,34.85982388,"34.85982388,135.52167672",大阪府茨木市彩都やまぶき四丁目３−３
Japan,162-0055,西落合四丁目１−７,新宿区,東京都,JP,139.67739415,35.72761156,"35.72761156,139.67739415",東京都新宿区西落合四丁目１−７
Japan,619-0233,大字乾谷一丁目１−１,相楽郡精華町,京都府,JP,135.76660445,34.73387167,"34.73387167,135.76660445",京都府相楽郡精華町大字乾谷一丁目１−１
Japan,468-0067,池見一丁目２−６,名古屋市天白区,愛知県,JP,136.96258497,35.12557671,"35.12557671,136.96258497",愛知県名古屋市天白区池見一丁目２−６
Japan,468-0064,道明町二丁目１−６,名古屋市天白区,愛知県,JP,136.97321426,35.12490575,"35.12490575,136.97321426",愛知県名古屋市天白区道明町二丁目１−６
Japan,270-1444,柳戸一丁目２−９,柏市,千葉県,JP,140.05735692,35.83766286,"35.83766286,140.05735692",千葉県柏市柳戸一丁目２−９
Japan,440-0013,西岩田四丁目１−５,豊橋市,愛知県,JP,137.42061349,34.75451893,"34.75451893,137.42061349",愛知県豊橋市西岩田四丁目１−５
Japan,156-0055,喜多見六丁目２−１,世田谷区,東京都,JP,139.60353776,35.63055067,"35.63055067,139.60353776",東京都世田谷区喜多見六丁目２−１
Japan,252-0235,大野台三丁目３−４,相模原市中央区,神奈川県,JP,139.39628333,35.55521663,"35.55521663,139.39628333",神奈川県相模原市中央区大野台三丁目３−４
Japan,133-0064,船堀五丁目２−５,江戸川区,東京都,JP,139.87035074,35.6824527,"35.6824527,139.87035074",東京都江戸川区船堀五丁目２−５
Japan,166-0014,桃井一丁目３−４,杉並区,東京都,JP,139.61207281,35.71113898,"35.71113898,139.61207281",東京都杉並区桃井一丁目３−４
Japan,602-8483,新烏丸頭町二丁目３−３,京都市上京区,京都府,JP,135.76828065,35.02042236,"35.02042236,135.76828065",京都府京都市上京区新烏丸頭町二丁目３−３
Japan,134-0087,松江一丁目３−４,江戸川区,東京都,JP,139.8690575,35.69931557,"35.69931557,139.8690575",東京都江戸川区松江一丁目３−４
Japan,187-0022,上水新町三丁目２−２,小平市,東京都,JP,139.45898168,35.71951863,"35.71951863,139.45898168",東京都小平市上水新町三丁目２−２
Japan,321-0952,泉が丘六丁目２−８,宇都宮市,栃木県,JP,139.92022065,36.56858568,"36.56858568,139.92022065",栃木県宇都宮市泉が丘六丁目２−８
Japan,332-0016,西川口三丁目２−１,川口市,埼玉県,JP,139.70441882,35.81099433,"35.81099433,139.70441882",埼玉県川口市西川口三丁目２−１
Japan,812-0872,西月隈五丁目３−４,福岡市博多区,福岡県,JP,130.4566743,33.56473125,"33.56473125,130.4566743",福岡県福岡市博多区西月隈五丁目３−４
Japan,981-0913,国見三丁目１−９,仙台市青葉区,宮城県,JP,140.84168825,38.27278978,"38.27278978,140.84168825",宮城県仙台市青葉区国見三丁目１−９
Japan,320-0808,宮園町一丁目２−８,宇都宮市,栃木県,JP,139.87998864,36.55887013,"36.55887013,139.87998864",栃木県宇都宮市宮園町一丁目２−８
Japan,062-0034,西岡三条十一丁目２−１,札幌市豊平区,北海道,JP,141.38060151,42.99981431,"42.99981431,141.38060151",北海道札幌市豊平区西岡三条十一丁目２−１
Japan,287-0233,玉造三丁目１−２,成田市,千葉県,JP,140.28728475,35.79014024,"35.79014024,140.28728475",千葉県成田市玉造三丁目１−２
Japan,736-0084,船越南三丁目２−７,広島市安芸区,広島県,JP,132.5249315,34.37113113,"34.37113113,132.5249315",広島県広島市安芸区船越南三丁目２−７
Japan,464-0859,新栄三丁目２−７,名古屋市千種区,愛知県,JP,136.92839199,35.16749126,"35.16749126,136.92839199",愛知県名古屋市千種区新栄三丁目２−７
Japan,182-0023,入間町一丁目１−９,調布市,東京都,JP,139.58964025,35.65221205,"35.65221205,139.58964025",東京都調布市入間町一丁目１−９
Japan,657-0846,高徳町五丁目２−７,神戸市灘区,兵庫県,JP,135.24176272,34.71849313,"34.71849313,135.24176272",兵庫県神戸市灘区高徳町五丁目２−７
Japan,475-0937,川田町一丁目３−５,半田市,愛知県,JP,136.94856747,34.89373976,"34.89373976,136.94856747",愛知県半田市川田町一丁目３−５
Japan,520-3203,西峰町二丁目２−２,湖南市,滋賀県,JP,136.12806867,35.0154959,"35.0154959,136.12806867",滋賀県湖南市西峰町二丁目２−２
Japan,251-0874,羽鳥五丁目２−５,藤沢市,神奈川県,JP,139.46579929,35.34428501,"35.34428501,139.46579929",神奈川県藤沢市羽鳥五丁目２−５
Japan,154-0003,代田五丁目１−６,世田谷区,東京都,JP,139.66222204,35.65999484,"35.65999484,139.66222204",東京都世田谷区代田五丁目１−６
Japan,458-0812,篭山二丁目２−５,名古屋市緑区,愛知県,JP,136.98318814,35.08283328,"35.08283328,136.98318814",愛知県名古屋市緑区篭山二丁目２−５
Japan,064-0916,南二十八条西十三丁目２−８,札幌市中央区,北海道,JP,141.34217249,43.02156814,"43.02156814,141.34217249",北海道札幌市中央区南二十八条西十三丁目２−８
Japan,475-0947,住吉町六丁目１−２,半田市,愛知県,JP,136.93075744,34.89934372,"34.89934372,136.93075744",愛知県半田市住吉町六丁目１−２
Japan,064-0825,北十八条西十五丁目２−６,札幌市中央区,北海道,JP,141.32973746,43.07983134,"43.07983134,141.32973746",北海道札幌市中央区北十八条西十五丁目２−６
Japan,639-0263,白鳳台二丁目１−７,香芝市,奈良県,JP,135.69191854,34.5694175,"34.5694175,135.69191854",奈良県香芝市白鳳台二丁目１−７
Japan,175-0093,板橋一丁目３−７,板橋区,東京都,JP,139.71746805,35.74652588,"35.74652588,139.71746805",東京都板橋区板橋一丁目３−７
Japan,861-4108,幸田一丁目３−４,熊本市南区,熊本県,JP,130.71612948,32.76790021,"32.76790021,130.71612948",熊本県熊本市南区幸田一丁目３−４
Japan,486-0836,二子町一丁目３−６,春日井市,愛知県,JP,136.93497217,35.22429192,"35.22429192,136.93497217",愛知県春日井市二子町一丁目３−６
Japan,703-8235,西川原二丁目１−７,岡山市中区,岡山県,JP,133.94085548,34.67796337,"34.67796337,133.94085548",岡山県岡山市中区西川原二丁目１−７
Japan,062-0005,美園一条八丁目１−７,札幌市豊平区,北海道,JP,141.39419486,43.04101948,"43.04101948,141.39419486",北海道札幌市豊平区美園一条八丁目１−７
Japan,321-3235,五代一丁目２−３,宇都宮市,栃木県,JP,139.86154386,36.4899495,"36.4899495,139.86154386",栃木県宇都宮市五代一丁目２−３
Japan,273-0025,印内三丁目３−６,船橋市,千葉県,JP,139.96678954,35.71694711,"35.71694711,139.96678954",千葉県船橋市印内三丁目３−６
Japan,170-0011,北大塚一丁目３−６,豊島区,東京都,JP,139.73196737,35.73250121,"35.73250121,139.73196737",東京都豊島区北大塚一丁目３−６
Japan,273-0045,八木が谷五丁目２−８,船橋市,千葉県,JP,140.03866655,35.76500059,"35.76500059,140.03866655",千葉県船橋市八木が谷五丁目２−８
Japan,604-0904,俵屋町一丁目２−４,京都市中京区,京都府,JP,135.74899878,35.01178219,"35.01178219,135.74899878",京都府京都市中京区俵屋町一丁目２−４
Japan,444-0224,羽根町二丁目３−９,岡崎市,愛知県,JP,137.174278,34.9229666,"34.9229666,137.174278",愛知県岡崎市羽根町二丁目３−９
Japan,132-0014,東小岩五丁目１−１,江戸川区,東京都,JP,139.88858871,35.7312373,"35.7312373,139.88858871",東京都江戸川区東小岩五丁目１−１
Japan,921-8176,駅西本町四丁目３−５,金沢市,石川県,JP,136.63284873,36.58542131,"36.58542131,136.63284873",石川県金沢市駅西本町四丁目３−５
Japan,305-0044,沼田二丁目１−３,つくば市,茨城県,JP,140.08734923,36.20602568,"36.20602568,140.08734923",茨城県つくば市沼田二丁目１−３
Japan,444-0944,康生町一丁目１−２,岡崎市,愛知県,JP,137.16065409,34.956595,"34.956595,137.16065409",愛知県岡崎市康生町一丁目１−２
Japan,440-0013,西岩田五丁目１−１,豊橋市,愛知県,JP,137.42065065,34.75274286,"34.75274286,137.42065065",愛知県豊橋市西岩田五丁目１−１
Japan,158-0081,宇奈根二丁目２−８,世田谷区,東京都,JP,139.6001159,35.6210273,"35.6210273,139.6001159",東京都世田谷区宇奈根二丁目２−８
Japan,980-0855,荒巻中央一丁目１−４,仙台市青葉区,宮城県,JP,140.85828944,38.29112871,"38.29112871,140.85828944",宮城県仙台市青葉区荒巻中央一丁目１−４
Japan,224-0065,桜並木二丁目３−６,横浜市都筑区,神奈川県,JP,139.57903068,35.5349878,"35.5349878,139.57903068",神奈川県横浜市都筑区桜並木二丁目３−６
Japan,321-0105,陽東一丁目２−６,宇都宮市,栃木県,JP,139.92582621,36.55099258,"36.55099258,139.92582621",栃木県宇都宮市陽東一丁目２−６
Japan,479-0018,青海町五丁目１−４,常滑市,愛知県,JP,136.83361464,34.92722721,"34.92722721,136.83361464",愛知県常滑市青海町五丁目１−４
Japan,003-0835,北郷三条二丁目１−９,札幌市白石区,北海道,JP,141.40970416,43.06251026,"43.06251026,141.40970416",北海道札幌市白石区北郷三条二丁目１−９
Japan,320-0053,戸祭台二丁目３−３,宇都宮市,栃木県,JP,139.87689755,36.58256316,"36.58256316,139.87689755",栃木県宇都宮市戸祭台二丁目３−３
Japan,135-0092,広町一丁目２−４,品川区,東京都,JP,139.73572643,35.6142845,"35.6142845,139.73572643",東京都品川区広町一丁目２−４
Japan,920-1119,無量寺一丁目３−７,金沢市,石川県,JP,136.60985856,36.60319656,"36.60319656,136.60985856",石川県金沢市無量寺一丁目３−７
Japan,602-8474,下木下町二丁目２−２,京都市上京区,京都府,JP,135.75631311,35.0335806,"35.0335806,135.75631311",京都府京都市上京区下木下町二丁目２−２
Japan,243-0426,杉久保南五丁目２−７,海老名市,神奈川県,JP,139.39794932,35.42013742,"35.42013742,139.39794932",神奈川県海老名市杉久保南五丁目２−７
Japan,541-0055,平野町二丁目３−７,大阪市中央区,大阪府,JP,135.50487073,34.68831362,"34.68831362,135.50487073",大阪府大阪市中央区平野町二丁目３−７
Japan,166-0013,西荻南四丁目３−６,杉並区,東京都,JP,139.60604948,35.70071194,"35.70071194,139.60604948",東京都杉並区西荻南四丁目３−６
Japan,064-0804,南十四条西十四丁目２−７,札幌市中央区,北海道,JP,141.33761455,43.04024339,"43.04024339,141.33761455",北海道札幌市中央区南十四条西十四丁目２−７
Japan,214-0011,菅仙谷四丁目１−２,川崎市多摩区,神奈川県,JP,139.51854892,35.62663625,"35.62663625,139.51854892",神奈川県川崎市多摩区菅仙谷四丁目１−２
Japan,920-8214,米泉町六丁目１−８,金沢市,石川県,JP,136.62403145,36.54962805,"36.54962805,136.62403145",石川県金沢市米泉町六丁目１−８
Japan,177-0042,三原台三丁目１−１,練馬区,東京都,JP,139.60031022,35.7525537,"35.7525537,139.60031022",東京都練馬区三原台三丁目１−１
Japan,216-0013,有馬八丁目１−７,川崎市宮前区,神奈川県,JP,139.57364871,35.57266093,"35.57266093,139.57364871",神奈川県川崎市宮前区有馬八丁目１−７
Japan,182-0001,深大寺南町二丁目３−４,調布市,東京都,JP,139.55812083,35.66129541,"35.66129541,139.55812083",東京都調布市深大寺南町二丁目３−４
Japan,664-0021,奥畑二丁目１−５,伊丹市,兵庫県,JP,135.3850635,34.78149834,"34.78149834,135.3850635",兵庫県伊丹市奥畑二丁目１−５
Japan,567-0802,蔵垣内三丁目３−８,茨木市,大阪府,JP,135.55687549,34.79274636,"34.79274636,135.55687549",大阪府茨木市蔵垣内三丁目３−８
Japan,330-0063,瀬ヶ崎四丁目１−５,さいたま市浦和区,埼玉県,JP,139.66502842,35.87568913,"35.87568913,139.66502842",埼玉県さいたま市浦和区瀬ヶ崎四丁目１−５
Japan,818-0124,五条二丁目１−６,太宰府市,福岡県,JP,130.5227921,33.51153746,"33.51153746,130.5227921",福岡県太宰府市五条二丁目１−６
Japan,162-0818,市谷柳町一丁目２−５,新宿区,東京都,JP,139.7261479,35.69974428,"35.69974428,139.7261479",東京都新宿区市谷柳町一丁目２−５
Japan,444-0022,新居町一丁目３−９,岡崎市,愛知県,JP,137.25798083,35.00379271,"35.00379271,137.25798083",愛知県岡崎市新居町一丁目３−９
Japan,709-1204,並木町二丁目２−１,岡山市南区,岡山県,JP,133.94119256,34.60955884,"34.60955884,133.94119256",岡山県岡山市南区並木町二丁目２−１
Japan,466-0807,山中町二丁目３−２,名古屋市昭和区,愛知県,JP,136.95218452,35.14906527,"35.14906527,136.95218452",愛知県名古屋市昭和区山中町二丁目３−２
Japan,221-0865,西寺尾二丁目３−５,横浜市神奈川区,神奈川県,JP,139.64830534,35.4993989,"35.4993989,139.64830534",神奈川県横浜市神奈川区西寺尾二丁目３−５
Japan,170-0011,北大塚一丁目３−３,豊島区,東京都,JP,139.73206696,35.73358011,"35.73358011,139.73206696",東京都豊島区北大塚一丁目３−３
Japan,106-0045,芝公園一丁目２−６,港区,東京都,JP,139.75185664,35.65871706,"35.65871706,139.75185664",東京都港区芝公園一丁目２−６
Japan,861-8072,本山町二丁目１−７,熊本市中央区,熊本県,JP,130.70073944,32.78388386,"32.78388386,130.70073944",熊本県熊本市中央区本山町二丁目１−７
Japan,816-0807,宝町二丁目１−９,春日市,福岡県,JP,130.4622414,33.53473885,"33.53473885,130.4622414",福岡県春日市宝町二丁目１−９
Japan,446-0013,根崎町一丁目３−４,安城市,愛知県,JP,137.03763529,34.90205339,"34.90205339,137.03763529",愛知県安城市根崎町一丁目３−４
Japan,060-0053,南十三条西九丁目１−５,札幌市中央区,北海道,JP,141.34544,43.04311993,"43.04311993,141.34544",北海道札幌市中央区南十三条西九丁目１−５
Japan,270-1441,吉野沢二丁目３−９,柏市,千葉県,JP,139.95907623,35.85260352,"35.85260352,139.95907623",千葉県柏市吉野沢二丁目３−９
Japan,144-0054,西六郷四丁目１−１,大田区,東京都,JP,139.70205028,35.54156176,"35.54156176,139.70205028",東京都大田区西六郷四丁目１−１
Japan,486-0916,鳥居松町四丁目３−３,春日井市,愛知県,JP,136.97197018,35.24433265,"35.24433265,136.97197018",愛知県春日井市鳥居松町四丁目３−３
Japan,111-0056,元浅草四丁目３−７,台東区,東京都,JP,139.78706341,35.70905188,"35.70905188,139.78706341",東京都台東区元浅草四丁目３−７
Japan,454-0907,八熊通四丁目２−４,名古屋市中川区,愛知県,JP,136.88437007,35.13947011,"35.13947011,136.88437007",愛知県名古屋市中川区八熊通四丁目２−４
Japan,230-0076,上末吉五丁目３−４,横浜市鶴見区,神奈川県,JP,139.66372013,35.53309847,"35.53309847,139.66372013",神奈川県横浜市鶴見区上末吉五丁目３−４
Japan,513-0009,中旭が丘二丁目１−８,鈴鹿市,三重県,JP,136.5744626,34.84489218,"34.84489218,136.5744626",三重県鈴鹿市中旭が丘二丁目１−８
Japan,321-0945,下横田町一丁目３−３,宇都宮市,栃木県,JP,139.89077489,36.48134788,"36.48134788,139.89077489",栃木県宇都宮市下横田町一丁目３−３
Japan,700-0954,宮浦一丁目３−１,岡山市南区,岡山県,JP,133.99349649,34.58504933,"34.58504933,133.99349649",岡山県岡山市南区宮浦一丁目３−１
Japan,321-0345,大通り二丁目２−６,宇都宮市,栃木県,JP,139.89195668,36.56020994,"36.56020994,139.89195668",栃木県宇都宮市大通り二丁目２−６
Japan,277-0832,北柏二丁目１−５,柏市,千葉県,JP,139.98899563,35.87222767,"35.87222767,139.98899563",千葉県柏市北柏二丁目１−５
Japan,173-0012,西台二丁目１−６,板橋区,東京都,JP,139.66975498,35.77946224,"35.77946224,139.66975498",東京都板橋区西台二丁目１−６
Japan,920-0836,小立野一丁目１−１,金沢市,石川県,JP,136.68468335,36.54522309,"36.54522309,136.68468335",石川県金沢市小立野一丁目１−１
Japan,252-0825,鵠沼東一丁目２−５,藤沢市,神奈川県,JP,139.4898548,35.33362793,"35.33362793,139.4898548",神奈川県藤沢市鵠沼東一丁目２−５
Japan,277-0017,西原二丁目２−５,柏市,千葉県,JP,139.92034081,35.89814474,"35.89814474,139.92034081",千葉県柏市西原二丁目２−５
Japan,921-8134,増泉三丁目１−８,金沢市,石川県,JP,136.63774721,36.55691922,"36.55691922,136.63774721",石川県金沢市増泉三丁目１−８
Japan,470-0213,黒笹いずみ三丁目１−７,みよし市,愛知県,JP,137.09678881,35.13070921,"35.13070921,137.09678881",愛知県みよし市黒笹いずみ三丁目１−７
Japan,440-0887,西小鷹野一丁目３−７,豊橋市,愛知県,JP,137.4226546,34.76971061,"34.76971061,137.4226546",愛知県豊橋市西小鷹野一丁目３−７
Japan,920-0905,金石北一丁目３−２,金沢市,石川県,JP,136.59784749,36.60544998,"36.60544998,136.59784749",石川県金沢市金石北一丁目３−２
Japan,600-8331,唐物町二丁目１−１,京都市下京区,京都府,JP,135.76415136,34.99353333,"34.99353333,135.76415136",京都府京都市下京区唐物町二丁目１−１
Japan,601-8346,吉祥院池田南町一丁目１−１,京都市南区,京都府,JP,135.73476539,34.96460149,"34.96460149,135.73476539",京都府京都市南区吉祥院池田南町一丁目１−１
Japan,133-0053,北葛西五丁目１−６,江戸川区,東京都,JP,139.86613772,35.6748179,"35.6748179,139.86613772",東京都江戸川区北葛西五丁目１−６
Japan,920-0805,窪五丁目１−９,金沢市,石川県,JP,136.63630803,36.5274775,"36.5274775,136.63630803",石川県金沢市窪五丁目１−９
Japan,468-0014,中平五丁目１−４,名古屋市天白区,愛知県,JP,136.99578096,35.1119326,"35.1119326,136.99578096",愛知県名古屋市天白区中平五丁目１−４
Japan,444-0860,魚町二丁目１−９,岡崎市,愛知県,JP,137.15885861,34.96007368,"34.96007368,137.15885861",愛知県岡崎市魚町二丁目１−９
Japan,220-0031,南軽井沢一丁目３−１,横浜市西区,神奈川県,JP,139.61208762,35.46771304,"35.46771304,139.61208762",神奈川県横浜市西区南軽井沢一丁目３−１
Japan,181-0001,新川五丁目１−３,三鷹市,東京都,JP,139.5689908,35.67384457,"35.67384457,139.5689908",東京都三鷹市新川五丁目１−３
Japan,174-0075,坂下二丁目１−５,板橋区,東京都,JP,139.68113145,35.78224687,"35.78224687,139.68113145",東京都板橋区坂下二丁目１−５
Japan,064-0807,南一条西十六丁目３−２,札幌市中央区,北海道,JP,141.33376043,43.05664371,"43.05664371,141.33376043",北海道札幌市中央区南一条西十六丁目３−２
Japan,270-2305,つくりや台一丁目１−４,印西市,千葉県,JP,140.18043195,35.79709678,"35.79709678,140.18043195",千葉県印西市つくりや台一丁目１−４
Japan,983-0835,小鶴一丁目１−９,仙台市宮城野区,宮城県,JP,140.92855039,38.28420355,"38.28420355,140.92855039",宮城県仙台市宮城野区小鶴一丁目１−９
Japan,277-0835,布施新町二丁目３−９,柏市,千葉県,JP,140.00306185,35.88997073,"35.88997073,140.00306185",千葉県柏市布施新町二丁目３−９
Japan,513-0022,野町東一丁目１−８,鈴鹿市,三重県,JP,136.57137961,34.85125364,"34.85125364,136.57137961",三重県鈴鹿市野町東一丁目１−８
Japan,183-0012,西府町一丁目２−４,府中市,東京都,JP,139.45477674,35.67216873,"35.67216873,139.45477674",東京都府中市西府町一丁目２−４
Japan,814-0002,次郎丸四丁目２−９,福岡市早良区,福岡県,JP,130.32819642,33.54855816,"33.54855816,130.32819642",福岡県福岡市早良区次郎丸四丁目２−９
Japan,003-0837,北郷五条八丁目１−９,札幌市白石区,北海道,JP,141.42614106,43.05758295,"43.05758295,141.42614106",北海道札幌市白石区北郷五条八丁目１−９
Japan,062-0003,美園十一条五丁目２−４,札幌市豊平区,北海道,JP,141.38072939,43.03601282,"43.03601282,141.38072939",北海道札幌市豊平区美園十一条五丁目２−４
Japan,442-0048,小田渕町二丁目３−８,豊川市,愛知県,JP,137.34655231,34.81577388,"34.81577388,137.34655231",愛知県豊川市小田渕町二丁目３−８
Japan,921-8145,七ツ屋町一丁目１−９,金沢市,石川県,JP,136.65074485,36.586522,"36.586522,136.65074485",石川県金沢市七ツ屋町一丁目１−９
Japan,664-0893,緑ケ丘一丁目１−６,伊丹市,兵庫県,JP,135.40801958,34.79331555,"34.79331555,135.40801958",兵庫県伊丹市緑ケ丘一丁目１−６
Japan,321-0145,元今泉二丁目１−６,宇都宮市,栃木県,JP,139.90170516,36.56452542,"36.56452542,139.90170516",栃木県宇都宮市元今泉二丁目１−６
Japan,151-0065,西原一丁目３−１,渋谷区,東京都,JP,139.68070215,35.67477855,"35.67477855,139.68070215",東京都渋谷区西原一丁目３−１
Japan,321-0105,陽東五丁目２−３,宇都宮市,栃木県,JP,139.93095376,36.55788524,"36.55788524,139.93095376",栃木県宇都宮市陽東五丁目２−３
Japan,158-0081,宇奈根一丁目３−４,世田谷区,東京都,JP,139.60647637,35.6188531,"35.6188531,139.60647637",東京都世田谷区宇奈根一丁目３−４
Japan,983-0014,岡田西町二丁目３−６,仙台市宮城野区,宮城県,JP,140.96003974,38.25497686,"38.25497686,140.96003974",宮城県仙台市宮城野区岡田西町二丁目３−６
Japan,062-0934,平岸三条七丁目１−６,札幌市豊平区,北海道,JP,141.37162501,43.03607213,"43.03607213,141.37162501",北海道札幌市豊平区平岸三条七丁目１−６
Japan,330-0042,仲町一丁目２−６,さいたま市浦和区,埼玉県,JP,139.65451257,35.86177752,"35.86177752,139.65451257",埼玉県さいたま市浦和区仲町一丁目２−６
Japan,064-0918,南二条西三丁目１−６,札幌市中央区,北海道,JP,141.35390755,43.05797159,"43.05797159,141.35390755",北海道札幌市中央区南二条西三丁目１−６
Japan,277-0027,あかね町一丁目２−７,柏市,千葉県,JP,139.97940881,35.84923689,"35.84923689,139.97940881",千葉県柏市あかね町一丁目２−７
Japan,564-0028,平松町二丁目３−９,吹田市,大阪府,JP,135.53411209,34.77015278,"34.77015278,135.53411209",大阪府吹田市平松町二丁目３−９
Japan,984-0821,河原町二丁目１−２,仙台市若林区,宮城県,JP,140.89258958,38.23733897,"38.23733897,140.89258958",宮城県仙台市若林区河原町二丁目１−２
Japan,183-0002,宮西町四丁目１−９,府中市,東京都,JP,139.47504635,35.6712122,"35.6712122,139.47504635",東京都府中市宮西町四丁目１−９
Japan,279-0012,入船五丁目１−６,浦安市,千葉県,JP,139.91909521,35.65339289,"35.65339289,139.91909521",千葉県浦安市入船五丁目１−６
Japan,167-0021,上高井戸一丁目２−２,杉並区,東京都,JP,139.61101007,35.67414437,"35.67414437,139.61101007",東京都杉並区上高井戸一丁目２−２
Japan,486-0968,味美町三丁目３−１,春日井市,愛知県,JP,136.94353251,35.23657942,"35.23657942,136.94353251",愛知県春日井市味美町三丁目３−１
Japan,904-2426,字安慶名二丁目３−５,うるま市,沖縄県,JP,127.85245578,26.38198535,"26.38198535,127.85245578",沖縄県うるま市字安慶名二丁目３−５
Japan,470-0118,米野木町一丁目２−２,日進市,愛知県,JP,137.07154756,35.13217201,"35.13217201,137.07154756",愛知県日進市米野木町一丁目２−２
Japan,856-0041,富の原一丁目３−１,大村市,長崎県,JP,129.93696654,32.9377468,"32.9377468,129.93696654",長崎県大村市富の原一丁目３−１
Japan,178-0063,石神井台七丁目３−３,練馬区,東京都,JP,139.57914398,35.73213106,"35.73213106,139.57914398",東京都練馬区石神井台七丁目３−３
Japan,323-0031,東間々田一丁目２−６,小山市,栃木県,JP,139.77444178,36.27158513,"36.27158513,139.77444178",栃木県小山市東間々田一丁目２−６
Japan,733-0805,三滝本町一丁目３−５,広島市西区,広島県,JP,132.4403153,34.41647854,"34.41647854,132.4403153",広島県広島市西区三滝本町一丁目３−５
Japan,448-0027,相生町二丁目１−６,刈谷市,愛知県,JP,137.0094884,34.99251576,"34.99251576,137.0094884",愛知県刈谷市相生町二丁目１−６
Japan,277-0853,南増尾四丁目３−３,柏市,千葉県,JP,139.96646903,35.81289452,"35.81289452,139.96646903",千葉県柏市南増尾四丁目３−３
Japan,700-0087,津島一丁目３−６,岡山市北区,岡山県,JP,133.92083006,34.69387102,"34.69387102,133.92083006",岡山県岡山市北区津島一丁目３−６
Japan,566-0024,千里丘三丁目３−１,摂津市,大阪府,JP,135.54602495,34.78882158,"34.78882158,135.54602495",大阪府摂津市千里丘三丁目３−１
Japan,709-1204,並木町二丁目２−９,岡山市南区,岡山県,JP,133.94192541,34.61036076,"34.61036076,133.94192541",岡山県岡山市南区並木町二丁目２−９
Japan,862-0909,御領七丁目１−３,熊本市東区,熊本県,JP,130.77931985,32.83390873,"32.83390873,130.77931985",熊本県熊本市東区御領七丁目１−３
Japan,904-0031,安慶田五丁目２−２,沖縄市,沖縄県,JP,127.8120647,26.32761661,"26.32761661,127.8120647",沖縄県沖縄市安慶田五丁目２−２
Japan,639-0264,磯壁六丁目３−１,香芝市,奈良県,JP,135.70207227,34.5310838,"34.5310838,135.70207227",奈良県香芝市磯壁六丁目３−１
Japan,814-0155,七隈一丁目１−４,福岡市城南区,福岡県,JP,130.35782943,33.56763154,"33.56763154,130.35782943",福岡県福岡市城南区七隈一丁目１−４
Japan,333-0854,在家町一丁目２−４,川口市,埼玉県,JP,139.70911491,35.85625754,"35.85625754,139.70911491",埼玉県川口市在家町一丁目２−４
Japan,223-0052,綱島西一丁目２−４,横浜市港北区,神奈川県,JP,139.63239473,35.53759523,"35.53759523,139.63239473",神奈川県横浜市港北区綱島西一丁目２−４
Japan,921-8104,鳴瀬元町一丁目３−３,金沢市,石川県,JP,136.72738267,36.60210537,"36.60210537,136.72738267",石川県金沢市鳴瀬元町一丁目３−３
Japan,146-0082,羽田空港二丁目２−９,大田区,東京都,JP,139.76532113,35.55214812,"35.55214812,139.76532113",東京都大田区羽田空港二丁目２−９
Japan,664-0003,荒牧南二丁目２−２,伊丹市,兵庫県,JP,135.38038438,34.80516085,"34.80516085,135.38038438",兵庫県伊丹市荒牧南二丁目２−２
Japan,134-0003,東松本一丁目１−６,江戸川区,東京都,JP,139.88603593,35.7185219,"35.7185219,139.88603593",東京都江戸川区東松本一丁目１−６
Japan,921-8024,下鴛原町一丁目３−７,金沢市,石川県,JP,136.71535719,36.4913851,"36.4913851,136.71535719",石川県金沢市下鴛原町一丁目３−７
Japan,606-8325,修学院泉殿町二丁目１−１,京都市左京区,京都府,JP,135.797273,35.05496035,"35.05496035,135.797273",京都府京都市左京区修学院泉殿町二丁目１−１
Japan,183-0021,是政一丁目２−８,府中市,東京都,JP,139.49527303,35.66312523,"35.66312523,139.49527303",東京都府中市是政一丁目２−８
Japan,305-0851,大わし一丁目２−９,つくば市,茨城県,JP,140.0922686,36.05383075,"36.05383075,140.0922686",茨城県つくば市大わし一丁目２−９
Japan,700-0833,天瀬一丁目３−９,岡山市北区,岡山県,JP,133.92876871,34.65589137,"34.65589137,133.92876871",岡山県岡山市北区天瀬一丁目３−９
Japan,731-0121,伴北七丁目２−７,広島市安佐南区,広島県,JP,132.40598188,34.48286838,"34.48286838,132.40598188",広島県広島市安佐南区伴北七丁目２−７
Japan,533-0021,瑞光四丁目３−１,大阪市東淀川区,大阪府,JP,135.54630203,34.75268186,"34.75268186,135.54630203",大阪府大阪市東淀川区瑞光四丁目３−１
Japan,064-0921,南三条西十二丁目１−８,札幌市中央区,北海道,JP,141.34018931,43.05455489,"43.05455489,141.34018931",北海道札幌市中央区南三条西十二丁目１−８
Japan,454-0866,春田二丁目１−９,名古屋市中川区,愛知県,JP,136.81542634,35.14399903,"35.14399903,136.81542634",愛知県名古屋市中川区春田二丁目１−９
Japan,452-0034,西須ケ口一丁目２−１,清須市,愛知県,JP,136.83972486,35.20118507,"35.20118507,136.83972486",愛知県清須市西須ケ口一丁目２−１
Japan,812-0037,堅粕三丁目２−１,福岡市博多区,福岡県,JP,130.42259437,33.59778237,"33.59778237,130.42259437",福岡県福岡市博多区堅粕三丁目２−１
Japan,440-0077,三ノ輪町二丁目２−５,豊橋市,愛知県,JP,137.41058699,34.74919974,"34.74919974,137.41058699",愛知県豊橋市三ノ輪町二丁目２−５
Japan,440-0835,飯村南五丁目２−６,豊橋市,愛知県,JP,137.42753081,34.73998963,"34.73998963,137.42753081",愛知県豊橋市飯村南五丁目２−６
Japan,444-0841,羽栗町二丁目１−５,岡崎市,愛知県,JP,137.22960631,34.88743009,"34.88743009,137.22960631",愛知県岡崎市羽栗町二丁目１−５
Japan,321-0158,西川田本町一丁目３−２,宇都宮市,栃木県,JP,139.84992389,36.51789208,"36.51789208,139.84992389",栃木県宇都宮市西川田本町一丁目３−２
Japan,210-0824,川中島一丁目１−３,川崎市川崎区,神奈川県,JP,139.72698349,35.53319735,"35.53319735,139.72698349",神奈川県川崎市川崎区川中島一丁目１−３
Japan,454-0831,万町二丁目１−３,名古屋市中川区,愛知県,JP,136.85837238,35.14769881,"35.14769881,136.85837238",愛知県名古屋市中川区万町二丁目１−３
Japan,183-0002,宮西町二丁目３−２,府中市,東京都,JP,139.47758777,35.67009085,"35.67009085,139.47758777",東京都府中市宮西町二丁目３−２
Japan,286-0114,東ノ台二丁目２−４,成田市,千葉県,JP,140.46354335,35.83444106,"35.83444106,140.46354335",千葉県成田市東ノ台二丁目２−４
Japan,211-0012,新城中町二丁目１−７,川崎市中原区,神奈川県,JP,139.63348445,35.58347165,"35.58347165,139.63348445",神奈川県川崎市中原区新城中町二丁目１−７
Japan,142-0052,北品川四丁目２−６,品川区,東京都,JP,139.73747704,35.62035376,"35.62035376,139.73747704",東京都品川区北品川四丁目２−６
Japan,273-0866,豊富町二丁目３−６,船橋市,千葉県,JP,140.06921978,35.76331184,"35.76331184,140.06921978",千葉県船橋市豊富町二丁目３−６
Japan,602-8392,北兼康町一丁目３−１,京都市上京区,京都府,JP,135.75481108,35.03068189,"35.03068189,135.75481108",京都府京都市上京区北兼康町一丁目３−１
Japan,810-0802,店屋町一丁目２−５,福岡市博多区,福岡県,JP,130.40893251,33.59663262,"33.59663262,130.40893251",福岡県福岡市博多区店屋町一丁目２−５
Japan,215-0011,五力田二丁目１−７,川崎市麻生区,神奈川県,JP,139.48988503,35.60399188,"35.60399188,139.48988503",神奈川県川崎市麻生区五力田二丁目１−７
Japan,223-0055,樽町一丁目３−５,横浜市港北区,神奈川県,JP,139.63557632,35.52809702,"35.52809702,139.63557632",神奈川県横浜市港北区樽町一丁目３−５
Japan,731-0101,沼田町大字吉山二丁目２−４,広島市安佐南区,広島県,JP,132.33458193,34.4619294,"34.4619294,132.33458193",広島県広島市安佐南区沼田町大字吉山二丁目２−４
Japan,320-0821,一条四丁目１−２,宇都宮市,栃木県,JP,139.87785636,36.55224742,"36.55224742,139.87785636",栃木県宇都宮市一条四丁目１−２
Japan,920-0113,田上一丁目２−７,金沢市,石川県,JP,136.69582468,36.54263379,"36.54263379,136.69582468",石川県金沢市田上一丁目２−７
Japan,448-0041,一番町三丁目１−１,刈谷市,愛知県,JP,136.99473916,35.01367855,"35.01367855,136.99473916",愛知県刈谷市一番町三丁目１−１
Japan,486-0934,中央台一丁目１−７,春日井市,愛知県,JP,137.04958173,35.27965418,"35.27965418,137.04958173",愛知県春日井市中央台一丁目１−７
Japan,920-3112,上若松町一丁目３−５,金沢市,石川県,JP,136.69197643,36.55172228,"36.55172228,136.69197643",石川県金沢市上若松町一丁目３−５
Japan,158-0094,梅丘三丁目２−１,世田谷区,東京都,JP,139.65726383,35.65113438,"35.65113438,139.65726383",東京都世田谷区梅丘三丁目２−１
Japan,701-1524,下高田一丁目１−２,岡山市北区,岡山県,JP,133.83015029,34.76918672,"34.76918672,133.83015029",岡山県岡山市北区下高田一丁目１−２
Japan,210-0832,浅田二丁目３−４,川崎市川崎区,神奈川県,JP,139.70258946,35.50733439,"35.50733439,139.70258946",神奈川県川崎市川崎区浅田二丁目３−４
Japan,442-0872,開運通一丁目１−６,豊川市,愛知県,JP,137.38858705,34.82567536,"34.82567536,137.38858705",愛知県豊川市開運通一丁目１−６
Japan,333-0855,元郷二丁目１−９,川口市,埼玉県,JP,139.72966849,35.79470531,"35.79470531,139.72966849",埼玉県川口市元郷二丁目１−９
Japan,810-0014,平尾四丁目１−２,福岡市中央区,福岡県,JP,130.39981402,33.57201495,"33.57201495,130.39981402",福岡県福岡市中央区平尾四丁目１−２
Japan,639-0245,尼寺一丁目２−８,香芝市,奈良県,JP,135.7034897,34.57222281,"34.57222281,135.7034897",奈良県香芝市尼寺一丁目２−８
Japan,334-0055,戸塚南四丁目３−６,川口市,埼玉県,JP,139.74415684,35.86355142,"35.86355142,139.74415684",埼玉県川口市戸塚南四丁目３−６
Japan,981-0902,支倉町二丁目３−２,仙台市青葉区,宮城県,JP,140.86055339,38.2674215,"38.2674215,140.86055339",宮城県仙台市青葉区支倉町二丁目３−２
Japan,156-0044,上北沢三丁目２−７,世田谷区,東京都,JP,139.62528247,35.66638094,"35.66638094,139.62528247",東京都世田谷区上北沢三丁目２−７
Japan,154-0003,代田二丁目１−７,世田谷区,東京都,JP,139.66340729,35.65685605,"35.65685605,139.66340729",東京都世田谷区代田二丁目１−７
Japan,320-0037,京町二丁目２−６,宇都宮市,栃木県,JP,139.87077873,36.55348766,"36.55348766,139.87077873",栃木県宇都宮市京町二丁目２−６
Japan,700-0084,津島京町二丁目１−８,岡山市北区,岡山県,JP,133.90135854,34.68319061,"34.68319061,133.90135854",岡山県岡山市北区津島京町二丁目１−８
Japan,143-0013,久が原一丁目１−５,大田区,東京都,JP,139.69064725,35.58577374,"35.58577374,139.69064725",東京都大田区久が原一丁目１−５
Japan,222-0013,大曽根台一丁目１−６,横浜市港北区,神奈川県,JP,139.62740632,35.5281766,"35.5281766,139.62740632",神奈川県横浜市港北区大曽根台一丁目１−６
Japan,486-0924,高蔵寺町北五丁目２−７,春日井市,愛知県,JP,137.05088852,35.26554174,"35.26554174,137.05088852",愛知県春日井市高蔵寺町北五丁目２−７
Japan,441-3201,東細谷町一丁目２−７,豊橋市,愛知県,JP,137.47955935,34.69239805,"34.69239805,137.47955935",愛知県豊橋市東細谷町一丁目２−７
Japan,454-0056,十一番町七丁目３−８,名古屋市中川区,愛知県,JP,136.87985131,35.11873118,"35.11873118,136.87985131",愛知県名古屋市中川区十一番町七丁目３−８
Japan,252-0234,相模原三丁目１−６,相模原市中央区,神奈川県,JP,139.37078024,35.57873534,"35.57873534,139.37078024",神奈川県相模原市中央区相模原三丁目１−６
Japan,566-0045,鳥飼上一丁目１−５,摂津市,大阪府,JP,135.59860896,34.78005625,"34.78005625,135.59860896",大阪府摂津市鳥飼上一丁目１−５
Japan,486-0917,東野町西三丁目２−６,春日井市,愛知県,JP,136.98084423,35.26894824,"35.26894824,136.98084423",愛知県春日井市東野町西三丁目２−６
Japan,164-0013,江原町一丁目２−４,中野区,東京都,JP,139.67376757,35.73004171,"35.73004171,139.67376757",東京都中野区江原町一丁目２−４
Japan,003-0839,北郷七条三丁目２−５,札幌市白石区,北海道,JP,141.41803444,43.06678503,"43.06678503,141.41803444",北海道札幌市白石区北郷七条三丁目２−５
Japan,003-0863,川下三条三丁目２−２,札幌市白石区,北海道,JP,141.4434934,43.05030098,"43.05030098,141.4434934",北海道札幌市白石区川下三条三丁目２−２
Japan,110-0005,台東一丁目２−５,台東区,東京都,JP,139.77867324,35.70102911,"35.70102911,139.77867324",東京都台東区台東一丁目２−５
Japan,444-0057,昭和町一丁目２−３,岡崎市,愛知県,JP,137.11748639,34.94564481,"34.94564481,137.11748639",愛知県岡崎市昭和町一丁目２−３
Japan,162-0857,新宿四丁目３−３,新宿区,東京都,JP,139.70460528,35.68932798,"35.68932798,139.70460528",東京都新宿区新宿四丁目３−３
Japan,338-0822,新開一丁目１−７,さいたま市桜区,埼玉県,JP,139.62133824,35.84558245,"35.84558245,139.62133824",埼玉県さいたま市桜区新開一丁目１−７
Japan,177-0033,中村南三丁目３−９,練馬区,東京都,JP,139.63893367,35.72761572,"35.72761572,139.63893367",東京都練馬区中村南三丁目３−９
Japan,252-0812,藤沢三丁目３−７,藤沢市,神奈川県,JP,139.47699478,35.34827039,"35.34827039,139.47699478",神奈川県藤沢市藤沢三丁目３−７
Japan,444-0047,舞木町二丁目３−７,岡崎市,愛知県,JP,137.23776679,34.9046605,"34.9046605,137.23776679",愛知県岡崎市舞木町二丁目３−７
Japan,564-0034,山田西四丁目３−４,吹田市,大阪府,JP,135.51849033,34.8034621,"34.8034621,135.51849033",大阪府吹田市山田西四丁目３−４
Japan,700-0803,北方二丁目１−５,岡山市北区,岡山県,JP,133.93075142,34.68940982,"34.68940982,133.93075142",岡山県岡山市北区北方二丁目１−５
Japan,606-8261,上高野畑ケ田町一丁目２−３,京都市左京区,京都府,JP,135.79726087,35.06192585,"35.06192585,135.79726087",京都府京都市左京区上高野畑ケ田町一丁目２−３
Japan,162-0853,住吉町二丁目２−５,新宿区,東京都,JP,139.72121875,35.69268503,"35.69268503,139.72121875",東京都新宿区住吉町二丁目２−５
Japan,700-0083,津島中三丁目３−１,岡山市北区,岡山県,JP,133.92249614,34.68827594,"34.68827594,133.92249614",岡山県岡山市北区津島中三丁目３−１
Japan,166-0011,上荻三丁目２−８,杉並区,東京都,JP,139.60900019,35.70829026,"35.70829026,139.60900019",東京都杉並区上荻三丁目２−８
Japan,921-8134,増泉三丁目３−５,金沢市,石川県,JP,136.63796781,36.55628418,"36.55628418,136.63796781",石川県金沢市増泉三丁目３−５
Japan,173-0036,高島平九丁目３−９,板橋区,東京都,JP,139.66938802,35.790232,"35.790232,139.66938802",東京都板橋区高島平九丁目３−９
Japan,505-0011,下米田町山本二丁目２−８,美濃加茂市,岐阜県,JP,137.07846962,35.47354117,"35.47354117,137.07846962",岐阜県美濃加茂市下米田町山本二丁目２−８
Japan,252-0201,中央三丁目２−２,相模原市中央区,神奈川県,JP,139.37029812,35.57010777,"35.57010777,139.37029812",神奈川県相模原市中央区中央三丁目２−２
Japan,441-8132,南小池町一丁目３−７,豊橋市,愛知県,JP,137.38947503,34.74666902,"34.74666902,137.38947503",愛知県豊橋市南小池町一丁目３−７
Japan,811-1354,塩原四丁目３−８,福岡市南区,福岡県,JP,130.43019103,33.55910586,"33.55910586,130.43019103",福岡県福岡市南区塩原四丁目３−８
Japan,920-0204,新保本一丁目３−９,金沢市,石川県,JP,136.6059497,36.55282149,"36.55282149,136.6059497",石川県金沢市新保本一丁目３−９
Japan,181-0002,井の頭三丁目１−３,三鷹市,東京都,JP,139.58179058,35.69551999,"35.69551999,139.58179058",東京都三鷹市井の頭三丁目１−３
Japan,230-0037,矢向五丁目３−６,横浜市鶴見区,神奈川県,JP,139.68286169,35.53759885,"35.53759885,139.68286169",神奈川県横浜市鶴見区矢向五丁目３−６
Japan,447-0074,上町三丁目３−８,碧南市,愛知県,JP,137.01071979,34.91574949,"34.91574949,137.01071979",愛知県碧南市上町三丁目３−８
Japan,252-1101,落合南一丁目３−３,綾瀬市,神奈川県,JP,139.43805905,35.41911521,"35.41911521,139.43805905",神奈川県綾瀬市落合南一丁目３−３
Japan,525-0047,若草一丁目３−２,草津市,滋賀県,JP,135.96874381,34.98969313,"34.98969313,135.96874381",滋賀県草津市若草一丁目３−２
Japan,336-0931,大字上野田二丁目１−９,さいたま市緑区,埼玉県,JP,139.69768478,35.90957317,"35.90957317,139.69768478",埼玉県さいたま市緑区大字上野田二丁目１−９
Japan,270-1465,つくしが丘一丁目２−２,柏市,千葉県,JP,139.96554852,35.83710501,"35.83710501,139.96554852",千葉県柏市つくしが丘一丁目２−２
Japan,980-0812,通町一丁目３−５,仙台市青葉区,宮城県,JP,140.86509498,38.27699941,"38.27699941,140.86509498",宮城県仙台市青葉区通町一丁目３−５
Japan,440-0028,多米西町一丁目３−６,豊橋市,愛知県,JP,137.43541419,34.76318538,"34.76318538,137.43541419",愛知県豊橋市多米西町一丁目３−６
Japan,321-0982,宮山田町一丁目１−８,宇都宮市,栃木県,JP,139.86182293,36.70872131,"36.70872131,139.86182293",栃木県宇都宮市宮山田町一丁目１−８
Japan,143-0016,大森南二丁目３−７,大田区,東京都,JP,139.74305328,35.56331316,"35.56331316,139.74305328",東京都大田区大森南二丁目３−７
Japan,252-0811,本鵠沼二丁目２−４,藤沢市,神奈川県,JP,139.47539499,35.33327635,"35.33327635,139.47539499",神奈川県藤沢市本鵠沼二丁目２−４
Japan,314-0112,知手中央七丁目２−８,神栖市,茨城県,JP,140.70756627,35.87060934,"35.87060934,140.70756627",茨城県神栖市知手中央七丁目２−８
Japan,486-0842,堀ノ内町二丁目２−８,春日井市,愛知県,JP,137.00647058,35.25208124,"35.25208124,137.00647058",愛知県春日井市堀ノ内町二丁目２−８
Japan,062-0937,平岸六条十七丁目２−１,札幌市豊平区,北海道,JP,141.37818201,43.01917287,"43.01917287,141.37818201",北海道札幌市豊平区平岸六条十七丁目２−１
Japan,466-0032,出口町二丁目２−４,名古屋市昭和区,愛知県,JP,136.92678042,35.14536871,"35.14536871,136.92678042",愛知県名古屋市昭和区出口町二丁目２−４
Japan,252-0813,辻堂元町六丁目３−９,藤沢市,神奈川県,JP,139.46475805,35.33512661,"35.33512661,139.46475805",神奈川県藤沢市辻堂元町六丁目３−９
Japan,300-3255,東光台一丁目１−２,つくば市,茨城県,JP,140.06276304,36.09871941,"36.09871941,140.06276304",茨城県つくば市東光台一丁目１−２
Japan,860-0831,春竹町大字春竹一丁目２−６,熊本市中央区,熊本県,JP,130.70322612,32.78522789,"32.78522789,130.70322612",熊本県熊本市中央区春竹町大字春竹一丁目２−６
Japan,251-0056,辻堂新町一丁目３−５,藤沢市,神奈川県,JP,139.45120294,35.33964685,"35.33964685,139.45120294",神奈川県藤沢市辻堂新町一丁目３−５
Japan,920-8214,米泉町一丁目１−６,金沢市,石川県,JP,136.62643442,36.54392746,"36.54392746,136.62643442",石川県金沢市米泉町一丁目１−６
Japan,639-0241,関屋北七丁目１−７,香芝市,奈良県,JP,135.66169817,34.55686896,"34.55686896,135.66169817",奈良県香芝市関屋北七丁目１−７
Japan,177-0051,西大泉三丁目３−９,練馬区,東京都,JP,139.5801232,35.75841244,"35.75841244,139.5801232",東京都練馬区西大泉三丁目３−９
Japan,224-0004,北山田六丁目２−２,横浜市都筑区,神奈川県,JP,139.59073061,35.56666696,"35.56666696,139.59073061",神奈川県横浜市都筑区北山田六丁目２−２
Japan,274-0074,高根町一丁目１−８,船橋市,千葉県,JP,140.00905934,35.72162339,"35.72162339,140.00905934",千葉県船橋市高根町一丁目１−８
Japan,332-0013,大字新井宿二丁目１−６,川口市,埼玉県,JP,139.73618643,35.84645402,"35.84645402,139.73618643",埼玉県川口市大字新井宿二丁目１−６
Japan,168-0073,大宮一丁目３−４,杉並区,東京都,JP,139.6461282,35.6858791,"35.6858791,139.6461282",東京都杉並区大宮一丁目３−４
Japan,454-0828,小本三丁目１−７,名古屋市中川区,愛知県,JP,136.86059345,35.14551666,"35.14551666,136.86059345",愛知県名古屋市中川区小本三丁目１−７
Japan,181-0012,大沢四丁目３−７,三鷹市,東京都,JP,139.5391472,35.66683558,"35.66683558,139.5391472",東京都三鷹市大沢四丁目３−７
Japan,062-0907,豊平七条七丁目２−４,札幌市豊平区,北海道,JP,141.37104466,43.0472263,"43.0472263,141.37104466",北海道札幌市豊平区豊平七条七丁目２−４
Japan,150-0031,広尾四丁目１−９,渋谷区,東京都,JP,139.71977126,35.65377357,"35.65377357,139.71977126",東京都渋谷区広尾四丁目１−９
Japan,464-0042,見附町三丁目３−９,名古屋市千種区,愛知県,JP,136.95977126,35.16082539,"35.16082539,136.95977126",愛知県名古屋市千種区見附町三丁目３−９
Japan,447-0865,浅間町五丁目１−８,碧南市,愛知県,JP,136.98711815,34.89318615,"34.89318615,136.98711815",愛知県碧南市浅間町五丁目１−８
Japan,321-0132,新町一丁目２−１,宇都宮市,栃木県,JP,139.87392494,36.55019781,"36.55019781,139.87392494",栃木県宇都宮市新町一丁目２−１
Japan,157-0064,深沢二丁目２−３,世田谷区,東京都,JP,139.66267072,35.62051731,"35.62051731,139.66267072",東京都世田谷区深沢二丁目２−３
Japan,062-0903,豊平三条三丁目２−８,札幌市豊平区,北海道,JP,141.36839954,43.05434357,"43.05434357,141.36839954",北海道札幌市豊平区豊平三条三丁目２−８
Japan,816-0873,日の出町一丁目１−７,春日市,福岡県,JP,130.45237047,33.54511766,"33.54511766,130.45237047",福岡県春日市日の出町一丁目１−７
Japan,134-0082,篠崎町七丁目２−３,江戸川区,東京都,JP,139.90193646,35.70531074,"35.70531074,139.90193646",東京都江戸川区篠崎町七丁目２−３
Japan,442-0001,蔵子六丁目１−３,豊川市,愛知県,JP,137.35814153,34.81944831,"34.81944831,137.35814153",愛知県豊川市蔵子六丁目１−３
Japan,903-0804,首里赤平町一丁目３−６,那覇市,沖縄県,JP,127.72060393,26.22191993,"26.22191993,127.72060393",沖縄県那覇市首里赤平町一丁目３−６
Japan,709-2114,御津新庄二丁目２−４,岡山市北区,岡山県,JP,133.96489085,34.82050848,"34.82050848,133.96489085",岡山県岡山市北区御津新庄二丁目２−４
Japan,543-0023,上本町四丁目３−９,大阪市天王寺区,大阪府,JP,135.51932105,34.67006871,"34.67006871,135.51932105",大阪府大阪市天王寺区上本町四丁目３−９
Japan,564-0061,南高浜町一丁目１−３,吹田市,大阪府,JP,135.52872648,34.75682763,"34.75682763,135.52872648",大阪府吹田市南高浜町一丁目１−３
Japan,565-0841,佐竹台四丁目１−９,吹田市,大阪府,JP,135.51823071,34.78873442,"34.78873442,135.51823071",大阪府吹田市佐竹台四丁目１−９
Japan,154-0024,上野毛一丁目３−１,世田谷区,東京都,JP,139.63875845,35.61217898,"35.61217898,139.63875845",東京都世田谷区上野毛一丁目３−１
Japan,277-0043,松葉町三丁目３−６,柏市,千葉県,JP,139.97192683,35.88547594,"35.88547594,139.97192683",千葉県柏市松葉町三丁目３−６
Japan,486-0831,貴船町二丁目２−４,春日井市,愛知県,JP,136.98504418,35.24764676,"35.24764676,136.98504418",愛知県春日井市貴船町二丁目２−４
Japan,920-0111,浅丘町一丁目３−４,金沢市,石川県,JP,136.74152688,36.6381921,"36.6381921,136.74152688",石川県金沢市浅丘町一丁目３−４
Japan,155-0033,若林五丁目２−４,世田谷区,東京都,JP,139.65780956,35.64939193,"35.64939193,139.65780956",東京都世田谷区若林五丁目２−４
Japan,444-0936,鴨田町二丁目１−３,岡崎市,愛知県,JP,137.16547933,34.98190196,"34.98190196,137.16547933",愛知県岡崎市鴨田町二丁目１−３
Japan,475-0956,港町四丁目１−２,半田市,愛知県,JP,136.9389002,34.88028051,"34.88028051,136.9389002",愛知県半田市港町四丁目１−２
Japan,158-0084,桜上水五丁目３−９,世田谷区,東京都,JP,139.62968265,35.66650645,"35.66650645,139.62968265",東京都世田谷区桜上水五丁目３−９
Japan,251-0874,羽鳥二丁目２−２,藤沢市,神奈川県,JP,139.45462011,35.34341522,"35.34341522,139.45462011",神奈川県藤沢市羽鳥二丁目２−２
Japan,270-2312,原山一丁目２−８,印西市,千葉県,JP,140.12496368,35.80142703,"35.80142703,140.12496368",千葉県印西市原山一丁目２−８
Japan,132-0034,西葛西七丁目３−４,江戸川区,東京都,JP,139.86071998,35.66030983,"35.66030983,139.86071998",東京都江戸川区西葛西七丁目３−４
Japan,252-0811,本鵠沼四丁目２−６,藤沢市,神奈川県,JP,139.46804502,35.33178068,"35.33178068,139.46804502",神奈川県藤沢市本鵠沼四丁目２−６
Japan,904-2305,石川白浜一丁目２−４,うるま市,沖縄県,JP,127.82916681,26.42970581,"26.42970581,127.82916681",沖縄県うるま市石川白浜一丁目２−４
Japan,731-0101,沼田町大字伴二丁目３−２,広島市安佐南区,広島県,JP,132.40091569,34.46970549,"34.46970549,132.40091569",広島県広島市安佐南区沼田町大字伴二丁目３−２
Japan,811-1362,中尾三丁目１−６,福岡市南区,福岡県,JP,130.4072429,33.54397317,"33.54397317,130.4072429",福岡県福岡市南区中尾三丁目１−６
Japan,811-1101,大字野芥二丁目１−３,福岡市早良区,福岡県,JP,130.35854364,33.53193609,"33.53193609,130.35854364",福岡県福岡市早良区大字野芥二丁目１−３
Japan,334-0057,芝新町二丁目２−２,川口市,埼玉県,JP,139.69381176,35.83033025,"35.83033025,139.69381176",埼玉県川口市芝新町二丁目２−２
Japan,173-0022,常盤台二丁目２−３,板橋区,東京都,JP,139.68896322,35.76108551,"35.76108551,139.68896322",東京都板橋区常盤台二丁目２−３
Japan,333-0834,上青木西二丁目１−５,川口市,埼玉県,JP,139.71551591,35.82501073,"35.82501073,139.71551591",埼玉県川口市上青木西二丁目１−５
Japan,274-0066,大穴北五丁目３−９,船橋市,千葉県,JP,140.05340198,35.75035148,"35.75035148,140.05340198",千葉県船橋市大穴北五丁目３−９
Japan,675-0163,南大中二丁目２−６,加古郡播磨町,兵庫県,JP,134.86622123,34.72004749,"34.72004749,134.86622123",兵庫県加古郡播磨町南大中二丁目２−６
Japan,531-0064,天神橋一丁目３−３,大阪市北区,大阪府,JP,135.51326423,34.69260116,"34.69260116,135.51326423",大阪府大阪市北区天神橋一丁目３−３
Japan,435-0014,大蒲町二丁目３−６,浜松市東区,静岡県,JP,137.76677078,34.71558747,"34.71558747,137.76677078",静岡県浜松市東区大蒲町二丁目３−６
Japan,274-0803,三山八丁目３−６,船橋市,千葉県,JP,140.05785085,35.69640114,"35.69640114,140.05785085",千葉県船橋市三山八丁目３−６
Japan,270-1465,つくしが丘三丁目１−１,柏市,千葉県,JP,139.96517813,35.83516582,"35.83516582,139.96517813",千葉県柏市つくしが丘三丁目１−１
Japan,568-0088,城の前町一丁目２−２,茨木市,大阪府,JP,135.57471925,34.83761646,"34.83761646,135.57471925",大阪府茨木市城の前町一丁目２−２
